[
  {
    "z_id": "17892198",
    "name": "Banh Appetit",
    "timings": "10:30 AM to 2:30 PM (Mon), 10:30 AM to 2:30 PM, 5 PM to 9 PM (Tue-Sat), Sun Closed",
    "price_range": 2,
    "average_cost_for_two": 15,
    "phone": "(08) 8941 9966",
    "address": "18/69 Mitchell St, Darwin City NT",
    "latitude": "-12.4627750000",
    "longitude": "130.8390610000",
    "base_city": "Darwin"
  },
  {
    "z_id": "18046507",
    "name": "Bao Brothers Eatery",
    "timings": "11 AM to 8:30 PM (Wed-Thu), 11 AM to 9 PM (Fri-Sat), Mon, Tue & Sun Closed",
    "price_range": 1,
    "average_cost_for_two": 0,
    "phone": "0421 550 997",
    "address": "701 Hunter Street, Newcastle West",
    "latitude": "-32.9265420000",
    "longitude": "151.7617970000",
    "base_city": "Newcastle West"
  },
  {
    "z_id": "16611230",
    "name": "Harrys Schnitzel Joint",
    "timings": "Breakfast, Lunch (Sun, Mon, Tue, Wed, Thu, Fri, Sat)",
    "price_range": 1,
    "average_cost_for_two": 7,
    "phone": "(02) 4962 1773",
    "address": "The Junction, The Junction",
    "latitude": "-32.9379610000",
    "longitude": "151.7589600000",
    "base_city": "The Junction"
  },
  {
    "z_id": "16610443",
    "name": "Blue Door Cafe",
    "timings": "(Sun),Breakfast, Lunch (Mon-Sat)",
    "price_range": 1,
    "average_cost_for_two": 0,
    "phone": "(02) 4929 4988",
    "address": "363/365 Hunter St @ Wheeler Place, Newcastle",
    "latitude": "-32.9272760000",
    "longitude": "151.7727690000",
    "base_city": "Newcastle"
  },
  {
    "z_id": "16609983",
    "name": "Pide Fez",
    "timings": "Lunch, Dinner (Sun, Mon, Tue, Thu), Lunch, Dinner, Late (Wed, Fri, Sat)",
    "price_range": 1,
    "average_cost_for_two": 7,
    "phone": "(02) 4929 4394",
    "address": "126 Darby St, Cooks Hill",
    "latitude": "-32.9312670000",
    "longitude": "151.7716830000",
    "base_city": "Cooks Hill"
  },
  {
    "z_id": "16610076",
    "name": "Eagle Boys Pizza Morisset",
    "timings": "Dinner, Late (Sun, Mon, Tue, Wed, Thu, Fri, Sat)",
    "price_range": 1,
    "average_cost_for_two": 7,
    "phone": "1300 324 532",
    "address": "50 Alliance Avenue, Morisset",
    "latitude": "-33.1153220000",
    "longitude": "151.4745640000",
    "base_city": "Morisset"
  },
  {
    "z_id": "16610026",
    "name": "Eagle Boys Pizza Belmont",
    "timings": "Lunch, Dinner, Late (Sun, Fri, Sat), Dinner, Late (Mon-Thu)",
    "price_range": 1,
    "average_cost_for_two": 7,
    "phone": "1300 324 532",
    "address": "Unit 3, 467-469 Pacific Highway, Belmont",
    "latitude": "-33.0298840000",
    "longitude": "151.6612550000",
    "base_city": "Belmont"
  },
  {
    "z_id": "16602307",
    "name": "Cucina Sotto Le Stelle",
    "timings": "Closed (Mon, Tue, Thu, Sat, Sun), 5 PM to 9 PM (Wed, Fri)",
    "price_range": 2,
    "average_cost_for_two": 20,
    "phone": "0449 731 490",
    "address": "Seabreeze Carpark Chapman Rd, Nightcliff",
    "latitude": "-12.3880493000",
    "longitude": "130.8510380000",
    "base_city": "Nightcliff"
  },
  {
    "z_id": "16602052",
    "name": "Eagle Boys Pizza Palmerston",
    "timings": "Dinner, Late (Sun, Mon, Tue, Wed, Thu, Fri, Sat)",
    "price_range": 1,
    "average_cost_for_two": 7,
    "phone": "1300 324 534",
    "address": "Shop 18 Palm City Oasis Shopping Centre, 15 Temple Tce, Palmerston",
    "latitude": "-12.4836430000",
    "longitude": "130.9846190000",
    "base_city": "Palmerston"
  },
  {
    "z_id": "16589048",
    "name": "The Market Shed on Holland",
    "timings": "Closed (Mon-Sat),9 AM to 3 PM (Sun)",
    "price_range": 1,
    "average_cost_for_two": 0,
    "phone": "0411 201 760, 0415 064 950",
    "address": "1 Holland Street, Adelaide",
    "latitude": "-34.9346932000",
    "longitude": "138.6002491000",
    "base_city": "Adelaide"
  },
  {
    "z_id": "16588992",
    "name": "Providore",
    "timings": "Closed (Mon, Sun), 7 AM to 5:30 PM (Tue, Thu), 11 AM to 3 PM (Wed),7 AM to 9 PM (Fri),7 AM to 3 PM (Sat)",
    "price_range": 1,
    "average_cost_for_two": 0,
    "phone": "(08) 8231 5977",
    "address": "Adelaide Central Market, Stall 66, Gouger Street, Adelaide",
    "latitude": "-34.9296417000",
    "longitude": "138.5964562000",
    "base_city": "Adelaide"
  },
  {
    "z_id": "18051127",
    "name": "Coopers Burger Shack/Coffee Central",
    "timings": "7 AM to 5 PM (Mon-Thu),7 AM to 10 PM (Fri),8 AM to 5:30 PM (Sat),9 AM to 5 PM (Sun)",
    "price_range": 1,
    "average_cost_for_two": 20,
    "phone": "Not available for this place",
    "address": "Rundle Mall, Adelaide",
    "latitude": "-34.9229750000",
    "longitude": "138.6043250000",
    "base_city": "Adelaide"
  },
  {
    "z_id": "16542099",
    "name": "The Coffee Bean Shop",
    "timings": "9:30 AM to 3 PM (Mon),7 AM to 5:30 PM (Tue),9 AM to 4 PM (Wed),8 AM to 5:30 PM (Thu),7 AM to 9 PM (Fri),7 AM to 3 PM (Sat),Closed (Sun)",
    "price_range": 1,
    "average_cost_for_two": 15,
    "phone": "(08) 8410 2525",
    "address": "Adelaide Central Markets, Stall 58, 44-60 Gouger Street, Adelaide",
    "latitude": "-34.9281426000",
    "longitude": "138.5958768000",
    "base_city": "Adelaide"
  },
  {
    "z_id": "18839415",
    "name": "Miss Lantern Dairy Bar",
    "timings": "9 AM to 4 PM (Mon-Thu), 9 AM to 7 PM (Fri), 9 AM to 3 PM (Sat-Sun)",
    "price_range": 1,
    "average_cost_for_two": 20,
    "phone": "Not available for this place",
    "address": "Adelaide Central Market, 44-60 Gouger Street, Adelaide, SA",
    "latitude": "-34.9295350000",
    "longitude": "138.5972820000",
    "base_city": "Adelaide"
  },
  {
    "z_id": "16588424",
    "name": "Danny's Mini Donuts",
    "timings": "Closed (Mon-Sat),9 AM to 5 PM (Sun)",
    "price_range": 1,
    "average_cost_for_two": 0,
    "phone": "(08) 8272 7996",
    "address": "Wharf Markets, Port Adelaide, Adelaide",
    "latitude": "-34.8438876577",
    "longitude": "138.5043382645",
    "base_city": "Adelaide"
  },
  {
    "z_id": "17841285",
    "name": "Olive & Edith",
    "timings": "Closed (Mon-Sat),9 AM to 3 PM (Sun)",
    "price_range": 1,
    "average_cost_for_two": 20,
    "phone": "0416 460 272",
    "address": "The Market Shed, 1 Holland Street, Adelaide",
    "latitude": "-34.9346932000",
    "longitude": "138.6002491000",
    "base_city": "Adelaide"
  },
  {
    "z_id": "16589759",
    "name": "Raw Life Living Foods",
    "timings": "Closed (Mon-Sat),9 AM to 3 PM (Sun)",
    "price_range": 1,
    "average_cost_for_two": 10,
    "phone": "0413 969 333",
    "address": "The Market Shed, 1 Holland Street, Adelaide",
    "latitude": "-34.9346932000",
    "longitude": "138.6002491000",
    "base_city": "Adelaide"
  },
  {
    "z_id": "18806342",
    "name": "Les Deux Coqs",
    "timings": "7 AM to 3:30 PM (Tue), 10 AM to 3 PM (Wed), 9 AM to 5:30 PM (Thu), 7 AM to 9 PM (Fri), 7 AM to 3 PM (Sat), Mon & Sun Closed",
    "price_range": 1,
    "average_cost_for_two": 0,
    "phone": "0448 526 126",
    "address": "Stall 2, Adelaide Central Market, Adelaide, SA",
    "latitude": "-34.9294870000",
    "longitude": "138.5972840000",
    "base_city": "Adelaide"
  },
  {
    "z_id": "18138536",
    "name": "Coffee Cart",
    "timings": "8 AM to 3:30 PM (Mon-Fri),Closed (Sat-Sun)",
    "price_range": 1,
    "average_cost_for_two": 0,
    "phone": "Not available for this place",
    "address": "Law And Commerce Court Yard, Flinders University, Flinders Drive, Bedford Park, Adelaide, Marion, Adelaide",
    "latitude": "-35.0220138889",
    "longitude": "138.5700083333",
    "base_city": "Adelaide"
  },
  {
    "z_id": "16601599",
    "name": "That Naughty Food Truck",
    "timings": "",
    "price_range": 1,
    "average_cost_for_two": 0,
    "phone": "0451 272 977",
    "address": "Morrison Road, Swan View, Midland, Perth",
    "latitude": "-31.8859354000",
    "longitude": "116.0483059000",
    "base_city": "Perth"
  },
  {
    "z_id": "16601091",
    "name": "Yahava Mobile Espresso Bar",
    "timings": "24 Hours (Mon-Sun)",
    "price_range": 1,
    "average_cost_for_two": 0,
    "phone": "0417 986 663",
    "address": "Nomadic Location, Perth",
    "latitude": "-31.7982298000",
    "longitude": "115.7454452000",
    "base_city": "Perth"
  },
  {
    "z_id": "16600831",
    "name": "James Bean Coffee",
    "timings": "6 AM to 11:30 AM (Mon-Sun)",
    "price_range": 1,
    "average_cost_for_two": 0,
    "phone": "0423 181 544",
    "address": "Northshore Drive, Kallaroo, Perth",
    "latitude": "-31.7998382000",
    "longitude": "115.7456852000",
    "base_city": "Perth"
  },
  {
    "z_id": "17841698",
    "name": "Hoy Pinoy",
    "timings": "5 PM to 9 PM (Mon-Tue),5 PM to 10 PM (Wed),5 PM to 11 PM (Thu-Fri),4 PM to 10 PM (Sat),4 PM to 9 PM (Sun)",
    "price_range": 1,
    "average_cost_for_two": 0,
    "phone": "Not available for this place",
    "address": "2 Roe Street, Perth",
    "latitude": "-31.9508720000",
    "longitude": "115.8607508000",
    "base_city": "Perth"
  },
  {
    "z_id": "16601059",
    "name": "Marcelita's Empanadas",
    "timings": "(Sun, Mon, Tue, Wed, Thu), Dinner (Fri-Sat)",
    "price_range": 2,
    "average_cost_for_two": 30,
    "phone": "0433 014 074",
    "address": "Nomadic Location, Perth CBD, Perth",
    "latitude": "-31.9512460000",
    "longitude": "115.8599060000",
    "base_city": "Perth"
  },
  {
    "z_id": "16601046",
    "name": "Ragin Cajun",
    "timings": "",
    "price_range": 1,
    "average_cost_for_two": 0,
    "phone": "0401 653 534",
    "address": "Nomadic Location, Perth CBD, Perth",
    "latitude": "-31.9530044000",
    "longitude": "115.8574693000",
    "base_city": "Perth"
  },
  {
    "z_id": "16601629",
    "name": "Braised Bros.",
    "timings": "",
    "price_range": 1,
    "average_cost_for_two": 0,
    "phone": "Not available for this place",
    "address": "Nomadic Location-See FB, Scarborough, Scarborough & North Beach, Perth",
    "latitude": "-31.8945421000",
    "longitude": "115.7590091000",
    "base_city": "Perth"
  },
  {
    "z_id": "17841741",
    "name": "That Food Truck",
    "timings": "",
    "price_range": 1,
    "average_cost_for_two": 0,
    "phone": "0419 947 608",
    "address": "Nomadic Location, Success, Perth",
    "latitude": "-32.1306030000",
    "longitude": "115.8526553000",
    "base_city": "Perth"
  },
  {
    "z_id": "16601434",
    "name": "Smokin BBQ Bus",
    "timings": "",
    "price_range": 2,
    "average_cost_for_two": 35,
    "phone": "0403 466 623",
    "address": "Nomadic Location, Henley Brook, Perth",
    "latitude": "-31.8133557000",
    "longitude": "116.0010016000",
    "base_city": "Perth"
  },
  {
    "z_id": "16601818",
    "name": "T Sisters Fresh Foods",
    "timings": "",
    "price_range": 1,
    "average_cost_for_two": 0,
    "phone": "Not available for this place",
    "address": "Cedric St, Stirling, Perth",
    "latitude": "-31.8799293000",
    "longitude": "115.8086137000",
    "base_city": "Perth"
  },
  {
    "z_id": "16602002",
    "name": "Pash Frozen Yoghurt",
    "timings": "",
    "price_range": 1,
    "average_cost_for_two": 20,
    "phone": "0422 228 710",
    "address": "Nomadic Location, Perth CBD, Perth",
    "latitude": "-31.9552382000",
    "longitude": "115.8505947000",
    "base_city": "Perth"
  },
  {
    "z_id": "17841649",
    "name": "Uncle Chops Smokehouse",
    "timings": "Closed (Mon, Tue, Wed, Sun), 5 PM to 8 PM (Thu-Sat)",
    "price_range": 2,
    "average_cost_for_two": 30,
    "phone": "0407 257 297",
    "address": "Nomadic Location, Perth CBD, Perth",
    "latitude": "-31.9535132000",
    "longitude": "115.8570471000",
    "base_city": "Perth"
  },
  {
    "z_id": "16599545",
    "name": "Miss Tartufo",
    "timings": "",
    "price_range": 1,
    "average_cost_for_two": 0,
    "phone": "0402 049 168",
    "address": "12 Parkinson Lane, Kardinya, Perth Inner, Perth CBD, Perth",
    "latitude": "-31.9510908000",
    "longitude": "115.8599254000",
    "base_city": "Perth"
  },
  {
    "z_id": "16601846",
    "name": "Rancho Sombrero Tex-Mex",
    "timings": "",
    "price_range": 1,
    "average_cost_for_two": 0,
    "phone": "0412 111 578",
    "address": "Walter Crescent, Morley",
    "latitude": "-31.8955131000",
    "longitude": "115.9102087000",
    "base_city": "Perth"
  },
  {
    "z_id": "18305549",
    "name": "Tikka Tango",
    "timings": "",
    "price_range": 1,
    "average_cost_for_two": 0,
    "phone": "0451 446 251",
    "address": "Nomadic Location, Maylands, Perth",
    "latitude": "-31.9300000000",
    "longitude": "115.9000000000",
    "base_city": "Perth"
  },
  {
    "z_id": "18316153",
    "name": "The Melt Hub",
    "timings": "Closed (Mon-Fri),9 AM to 4 PM (Sat-Sun)",
    "price_range": 1,
    "average_cost_for_two": 25,
    "phone": "0415 677 044",
    "address": "Nomadic Location, Subiaco, Perth",
    "latitude": "-31.9462429027",
    "longitude": "115.8228408918",
    "base_city": "Perth"
  },
  {
    "z_id": "16601072",
    "name": "Wicked Waffles & Icecream",
    "timings": "",
    "price_range": 1,
    "average_cost_for_two": 0,
    "phone": "0439 039 839",
    "address": "Nomadic Location, Perth CBD, Perth",
    "latitude": "-31.9530044000",
    "longitude": "115.8574693000",
    "base_city": "Perth"
  },
  {
    "z_id": "17841682",
    "name": "Wicked Chilli",
    "timings": "",
    "price_range": 2,
    "average_cost_for_two": 30,
    "phone": "0412 593 054",
    "address": "Nomadic Location",
    "latitude": "-32.0484787000",
    "longitude": "115.7481784000",
    "base_city": "Perth"
  },
  {
    "z_id": "16600941",
    "name": "Delicious Bites",
    "timings": "",
    "price_range": 1,
    "average_cost_for_two": 0,
    "phone": "0432 500 200",
    "address": "Twilight Hawkers Market Forrest Pl, Perth CBD, Perth",
    "latitude": "-31.9525739000",
    "longitude": "115.8610488000",
    "base_city": "Perth"
  },
  {
    "z_id": "16601053",
    "name": "Churro Central",
    "timings": "",
    "price_range": 2,
    "average_cost_for_two": 30,
    "phone": "0418 927 113",
    "address": "Nomadic Location, Perth CBD, Perth",
    "latitude": "-31.9530044000",
    "longitude": "115.8574693000",
    "base_city": "Perth"
  },
  {
    "z_id": "16592593",
    "name": "The Bun Mobile",
    "timings": "",
    "price_range": 2,
    "average_cost_for_two": 30,
    "phone": "0401 420 922",
    "address": "Nomadic Location, Brisbane, QLD",
    "latitude": "-27.4688067506",
    "longitude": "153.0243329331",
    "base_city": "Brisbane"
  },
  {
    "z_id": "16594769",
    "name": "King of the Wings",
    "timings": "",
    "price_range": 2,
    "average_cost_for_two": 30,
    "phone": "0433 177 478",
    "address": "Nomadic Location, Brisbane, QLD",
    "latitude": "-27.4686011933",
    "longitude": "153.0245894194",
    "base_city": "Brisbane"
  },
  {
    "z_id": "16592087",
    "name": "Kombi Koffein",
    "timings": "6:30 AM to 11 AM (Mon-Wed, Sun), 6 AM to 8:30 AM (Thu-Fri), 6 AM to 1 PM (Sat)",
    "price_range": 1,
    "average_cost_for_two": 15,
    "phone": "0448 389 383",
    "address": "Nomadic Location, Brisbane",
    "latitude": "-27.4770850000",
    "longitude": "153.0055690000",
    "base_city": "Brisbane"
  },
  {
    "z_id": "16593813",
    "name": "Roesti Revolution",
    "timings": "",
    "price_range": 1,
    "average_cost_for_two": 25,
    "phone": "0450 729 556",
    "address": "Nomadic Location, Brisbane, QLD",
    "latitude": "-27.4784430000",
    "longitude": "153.0049580000",
    "base_city": "Brisbane"
  },
  {
    "z_id": "18445614",
    "name": "Mac From Way Back",
    "timings": "",
    "price_range": 2,
    "average_cost_for_two": 35,
    "phone": "0424 901 881",
    "address": "Nomadic Location, Brisbane, QLD",
    "latitude": "-27.4684200288",
    "longitude": "153.0243493617",
    "base_city": "Brisbane"
  },
  {
    "z_id": "18431123",
    "name": "Mr Burger Brisbane",
    "timings": "4 PM to 9:30 PM (Wed-Thu), 11 AM to 10 PM (Fri-Sun), Mon & Tue Closed",
    "price_range": 2,
    "average_cost_for_two": 40,
    "phone": "Not available for this place",
    "address": "Welcome to Bowen Hills, 631 Gregory Terrace, Bowen Hills, Brisbane",
    "latitude": "-27.4513925124",
    "longitude": "153.0327352881",
    "base_city": "Brisbane"
  },
  {
    "z_id": "18445588",
    "name": "Locomades",
    "timings": "4 PM to 10 PM (Fri-Sat), 12 Noon to 8 PM (Sun), Mon, Tue, Wed & Thu Closed",
    "price_range": 1,
    "average_cost_for_two": 25,
    "phone": "0415 612 579",
    "address": "Eat Street Markets, Nomadic Location, Hamilton, Brisbane",
    "latitude": "-27.4434980047",
    "longitude": "153.0801185221",
    "base_city": "Brisbane"
  },
  {
    "z_id": "18285760",
    "name": "Rolls Pho Mi",
    "timings": "",
    "price_range": 1,
    "average_cost_for_two": 20,
    "phone": "0435 342 640",
    "address": "Various Locations, Brisbane, QLD",
    "latitude": "-27.4688168649",
    "longitude": "153.0242980644",
    "base_city": "Brisbane"
  },
  {
    "z_id": "16594976",
    "name": "That BBQ Joint",
    "timings": "",
    "price_range": 2,
    "average_cost_for_two": 30,
    "phone": "0431 722 252",
    "address": "Nomadic Location, Brisbane, QLD",
    "latitude": "-27.4688231119",
    "longitude": "153.0243208632",
    "base_city": "Brisbane"
  },
  {
    "z_id": "18551204",
    "name": "That Greek Truck",
    "timings": "",
    "price_range": 1,
    "average_cost_for_two": 0,
    "phone": "0432 449 883",
    "address": "Nomadic Location, Brisbane, QLD",
    "latitude": "-27.4688558344",
    "longitude": "153.0277866125",
    "base_city": "Brisbane"
  },
  {
    "z_id": "17989230",
    "name": "Pizzantica",
    "timings": "",
    "price_range": 2,
    "average_cost_for_two": 30,
    "phone": "0449 624 739",
    "address": "Nomadic Location, Brisbane",
    "latitude": "-27.4523746373",
    "longitude": "153.0469801650",
    "base_city": "Brisbane"
  },
  {
    "z_id": "16594606",
    "name": "KOMA Sliders",
    "timings": "",
    "price_range": 2,
    "average_cost_for_two": 30,
    "phone": "0420 312 325",
    "address": "Nomadic Location, Brisbane, QLD",
    "latitude": "-27.4688864746",
    "longitude": "153.0245646089",
    "base_city": "Brisbane"
  },
  {
    "z_id": "18463211",
    "name": "MooFree Burgers",
    "timings": "",
    "price_range": 2,
    "average_cost_for_two": 30,
    "phone": "07 3855 3966",
    "address": "Nomadic Location, Brisbane, QLD",
    "latitude": "-27.4688076431",
    "longitude": "153.0243282393",
    "base_city": "Brisbane"
  },
  {
    "z_id": "17989259",
    "name": "Ruby Ice Cream",
    "timings": "",
    "price_range": 1,
    "average_cost_for_two": 20,
    "phone": "0431 049 474",
    "address": "Nomadic Location, Brisbane, QLD",
    "latitude": "-27.4688198396",
    "longitude": "153.0242960528",
    "base_city": "Brisbane"
  },
  {
    "z_id": "18019700",
    "name": "Na Meche Place",
    "timings": "",
    "price_range": 2,
    "average_cost_for_two": 30,
    "phone": "0410 701 305",
    "address": "Nomadic Location, Brisbane CBD, Brisbane",
    "latitude": "-27.4688103204",
    "longitude": "153.0242957175",
    "base_city": "Brisbane"
  },
  {
    "z_id": "18861279",
    "name": "CharKOR BBQ",
    "timings": "",
    "price_range": 2,
    "average_cost_for_two": 30,
    "phone": "0421 515 614",
    "address": "Nomadic Location, Brisbane CBD, Brisbane",
    "latitude": "-27.4674677949",
    "longitude": "153.0306927860",
    "base_city": "Brisbane"
  },
  {
    "z_id": "18424005",
    "name": "Poulet & Porc",
    "timings": "4 PM to 10 PM (Fri-Sat), 12 Noon to 8 PM (Sun), Mon, Tue, Wed & Thu Closed",
    "price_range": 2,
    "average_cost_for_two": 30,
    "phone": "Not available for this place",
    "address": "Eat Street Markets, Nomadic Location, Hamilton, Brisbane",
    "latitude": "-27.4437473481",
    "longitude": "153.0798704177",
    "base_city": "Brisbane"
  },
  {
    "z_id": "17989242",
    "name": "Chocolate Komberry Co.",
    "timings": "4 PM to 10 PM (Fri-Sat), 12 Noon to 8 PM (Sun), Mon, Tue, Wed & Thu Closed",
    "price_range": 1,
    "average_cost_for_two": 20,
    "phone": "0423 489 234",
    "address": "Nomadic Location, Hamilton, Brisbane",
    "latitude": "-27.4432816885",
    "longitude": "153.0801597610",
    "base_city": "Brisbane"
  },
  {
    "z_id": "18342179",
    "name": "Mussel Brothers",
    "timings": "5 PM to 10 PM (Fri), 4 PM to 10 PM (Sat), Mon, Tue, Wed, Thu & Sun Closed",
    "price_range": 2,
    "average_cost_for_two": 40,
    "phone": "07 3040 7939",
    "address": "Nomadic Location, Mount Gravatt, Brisbane",
    "latitude": "-27.5397454359",
    "longitude": "153.0789598078",
    "base_city": "Brisbane"
  },
  {
    "z_id": "18598320",
    "name": "Chef On The Road",
    "timings": "",
    "price_range": 1,
    "average_cost_for_two": 20,
    "phone": "0431 025 846",
    "address": "Nomadic Location, Brisbane, QLD",
    "latitude": "-27.4690203395",
    "longitude": "153.0277799070",
    "base_city": "Brisbane"
  },
  {
    "z_id": "18273652",
    "name": "El Argentino",
    "timings": "",
    "price_range": 1,
    "average_cost_for_two": 0,
    "phone": "Not available for this place",
    "address": "Nomadic Location",
    "latitude": "-31.9200000000",
    "longitude": "115.9000000000",
    "base_city": "Perth"
  },
  {
    "z_id": "19182826",
    "name": "The Saffron Bar",
    "timings": "9 AM to 8 PM (Fri), 9 AM to 6 PM (Sat-Sun), Mon, Tue, Wed & Thu Closed",
    "price_range": 2,
    "average_cost_for_two": 30,
    "phone": "Not available for this place",
    "address": "Fremantle Markets, South Terrace Corner Henderson Street, Fremantle, Perth",
    "latitude": "-32.0557884302",
    "longitude": "115.7498301566",
    "base_city": "Perth"
  },
  {
    "z_id": "19133034",
    "name": "Tokyo Gohan in Fremantle Markets",
    "timings": "9 AM to 8 PM (Fri), 9 AM to 6 PM (Sat-Sun), Mon, Tue, Wed & Thu Closed",
    "price_range": 2,
    "average_cost_for_two": 30,
    "phone": "0422 127 871",
    "address": "Fremantle Market, South Terrace & Henderson Street, Fremantle, Perth",
    "latitude": "-32.0552420000",
    "longitude": "115.7493960000",
    "base_city": "Perth"
  },
  {
    "z_id": "19182821",
    "name": "Suku",
    "timings": "9 AM to 8 PM (Fri), 9 AM to 6 PM (Sat-Sun), Mon, Tue, Wed & Thu Closed",
    "price_range": 2,
    "average_cost_for_two": 30,
    "phone": "Not available for this place",
    "address": "Shop 98, Fremantle Markets, South Terrace Corner Henderson Street, Fremantle, Perth",
    "latitude": "-32.0557921243",
    "longitude": "115.7498281449",
    "base_city": "Perth"
  },
  {
    "z_id": "19182816",
    "name": "Past A Round",
    "timings": "9 AM to 8 PM (Fri), 9 AM to 6 PM (Sat-Sun), Mon, Tue, Wed & Thu Closed",
    "price_range": 2,
    "average_cost_for_two": 30,
    "phone": "Not available for this place",
    "address": "Fremantle Market, South Terrace & Henderson Street, Fremantle, Perth",
    "latitude": "-32.0559677332",
    "longitude": "115.7495904341",
    "base_city": "Perth"
  },
  {
    "z_id": "19182828",
    "name": "Viet Kites",
    "timings": "9 AM to 8 PM (Fri), 9 AM to 6 PM (Sat-Sun), Mon, Tue, Wed & Thu Closed",
    "price_range": 2,
    "average_cost_for_two": 40,
    "phone": "Not available for this place",
    "address": "Fremantle Markets, Shop Y127, Corner Henderson Street and South Terrace, Fremantle, Perth",
    "latitude": "-32.0557304622",
    "longitude": "115.7497815415",
    "base_city": "Perth"
  },
  {
    "z_id": "19036923",
    "name": "Supernatural",
    "timings": "7am â€“ 3pm (Mon-Fri),Closed (Sat-Sun)",
    "price_range": 1,
    "average_cost_for_two": 0,
    "phone": "(08) 9380 9140",
    "address": "Perth Children&#039;s Hospital - Level 5, 15 Hospital Avenue, Nedlands, Perth",
    "latitude": "-31.9693890000",
    "longitude": "115.8169720000",
    "base_city": "Perth"
  },
  {
    "z_id": "16612960",
    "name": "Kyms Kitchen",
    "timings": "(Sun, Sat), Breakfast, Lunch (Mon-Fri)",
    "price_range": 1,
    "average_cost_for_two": 7,
    "phone": "(07) 4151 3647",
    "address": "55 Bourbong St, Bundaberg",
    "latitude": "-24.8655190000",
    "longitude": "152.3501890000",
    "base_city": "Bundaberg"
  },
  {
    "z_id": "16613867",
    "name": "Eagle Boys Pizza Bundaberg",
    "timings": "Dinner, Late (Sun, Mon, Tue, Wed, Thu, Fri, Sat)",
    "price_range": 1,
    "average_cost_for_two": 7,
    "phone": "1300 324 532",
    "address": "269 Bourbong Street, Bundaberg",
    "latitude": "-24.8687730000",
    "longitude": "152.3383030000",
    "base_city": "Bundaberg"
  },
  {
    "z_id": "18620187",
    "name": "Dandy Pizza",
    "timings": "9 AM to 4 PM (Mon-Sat), 10 AM to 3 PM (Sun)",
    "price_range": 2,
    "average_cost_for_two": 40,
    "phone": "0401 366 819",
    "address": "Dandenong Market, Clow Street & Cleeland Street, Dandenong",
    "latitude": "-37.9841111071",
    "longitude": "145.2152962983",
    "base_city": "Melbourne"
  },
  {
    "z_id": "18245073",
    "name": "Ablaze Woodfired Pizza's on Dorset Rd",
    "timings": "11 AM to 8 PM (Thu-Sat), Mon, Tue, Wed & Sun Closed",
    "price_range": 2,
    "average_cost_for_two": 40,
    "phone": "0435 797 879",
    "address": "Food Stall, location varies",
    "latitude": "-37.8297159786",
    "longitude": "145.2865917608",
    "base_city": "Melbourne"
  },
  {
    "z_id": "18521235",
    "name": "Les Crepes Gourmandes",
    "timings": "8 AM to 1 PM (Sun), Mon, Tue, Wed, Thu, Fri & Sat Closed",
    "price_range": 2,
    "average_cost_for_two": 30,
    "phone": "0432 479 045",
    "address": "Nomadic Location",
    "latitude": "-37.6965495368",
    "longitude": "145.0577037782",
    "base_city": "Melbourne"
  },
  {
    "z_id": "18542545",
    "name": "Butterlake Pancakes",
    "timings": "5 PM to 10 PM (Wed), Mon, Tue, Thu, Fri, Sat & Sun Closed",
    "price_range": 1,
    "average_cost_for_two": 25,
    "phone": "Not available for this place",
    "address": "Rear of 513 Elizabeth Street, CBD, Melbourne",
    "latitude": "-37.8072187619",
    "longitude": "144.9593739957",
    "base_city": "Melbourne"
  },
  {
    "z_id": "18398304",
    "name": "Pizza @ QV",
    "timings": "7 AM to 3 PM (Mon-Sat), 7 AM to 4 PM (Sun)",
    "price_range": 2,
    "average_cost_for_two": 30,
    "phone": "Not available for this place",
    "address": "Queen Victoria Market, Shed F, 513 Elizabeth Street, CBD",
    "latitude": "-37.8073106802",
    "longitude": "144.9564872682",
    "base_city": "Melbourne"
  },
  {
    "z_id": "18806305",
    "name": "Thela",
    "timings": "7 AM to 4 PM (Tue, Sat), 7 AM to 5 PM (Fri), 10 AM to 3 PM (Sun), Mon, Wed & Thu Closed",
    "price_range": 1,
    "average_cost_for_two": 20,
    "phone": "0426 350 292",
    "address": "Dandenong Market, L5 Market Square, 16 Cleeland Street, Dandenong, Melbourne",
    "latitude": "-37.9842464073",
    "longitude": "145.2155085281",
    "base_city": "Melbourne"
  },
  {
    "z_id": "18022026",
    "name": "U Fuculari Sicilian BBQ",
    "timings": "",
    "price_range": 4,
    "average_cost_for_two": 100,
    "phone": "0400 845 711",
    "address": "Nomadic Location",
    "latitude": "-37.8735579134",
    "longitude": "144.9767677859",
    "base_city": "Melbourne"
  },
  {
    "z_id": "18822336",
    "name": "Baba & Nyonya",
    "timings": "8:30 AM to 3 PM (Wed), 8:30 AM to 4:30 PM (Sun), Mon, Tue, Thu, Fri & Sat Closed",
    "price_range": 1,
    "average_cost_for_two": 0,
    "phone": "03 9756 5000",
    "address": "Caribbean Garden, 1280 Ferntree Gully Road, Scoresby, Melbourne",
    "latitude": "-37.9098590000",
    "longitude": "145.2252340000",
    "base_city": "Melbourne"
  },
  {
    "z_id": "18574089",
    "name": "Paella",
    "timings": "8 AM to 3 PM (Wed, Sat), 8 AM to 6 PM (Thu-Fri), Mon, Tue & Sun Closed",
    "price_range": 1,
    "average_cost_for_two": 20,
    "phone": "Not available for this place",
    "address": "Preston Markets, Corner Cramer Street & Mary Street",
    "latitude": "-37.7389107198",
    "longitude": "145.0018789619",
    "base_city": "Melbourne"
  },
  {
    "z_id": "18811515",
    "name": "Red Engine Cafe",
    "timings": "5 AM to 7 PM (Mon-Thu), 5 AM to 8 PM (Fri), Sat & Sun Closed",
    "price_range": 1,
    "average_cost_for_two": 15,
    "phone": "Not available for this place",
    "address": "Oakleigh Railway Station, Oakleigh, Melbourne",
    "latitude": "-37.9003222177",
    "longitude": "145.0881240517",
    "base_city": "Melbourne"
  },
  {
    "z_id": "18707404",
    "name": "Mixed Grill",
    "timings": "6 PM to 12 Midnight",
    "price_range": 3,
    "average_cost_for_two": 50,
    "phone": "0456 007 235",
    "address": "257 Ballarat Road, Braybrook, Melbourne",
    "latitude": "-37.7805905046",
    "longitude": "144.8589326441",
    "base_city": "Melbourne"
  },
  {
    "z_id": "18822330",
    "name": "Mabu Mabu",
    "timings": "8 AM to 4 PM (Wed-Thu, Sat-Sun), 8 AM to 5 PM (Fri), Mon & Tue Closed",
    "price_range": 3,
    "average_cost_for_two": 50,
    "phone": "Not available for this place",
    "address": "South Melbourne Market, Stall 72, Coventry Street and Cecil Street, South Melbourne, Melbourne",
    "latitude": "-37.8318609368",
    "longitude": "144.9566790462",
    "base_city": "Melbourne"
  },
  {
    "z_id": "18735866",
    "name": "Celtic Bakery",
    "timings": "",
    "price_range": 1,
    "average_cost_for_two": 0,
    "phone": "03 9480 3949",
    "address": "Locations Varies, VIC",
    "latitude": "-37.7490600774",
    "longitude": "144.9908014387",
    "base_city": "Melbourne"
  },
  {
    "z_id": "18553113",
    "name": "Get Juicy",
    "timings": "9 AM to 5:30 PM",
    "price_range": 1,
    "average_cost_for_two": 15,
    "phone": "0403 192 229",
    "address": "Northcote Plaza Shopping Centre, 21 Separation Street, Northcote, Melbourne",
    "latitude": "-37.7683130419",
    "longitude": "145.0016845018",
    "base_city": "Melbourne"
  },
  {
    "z_id": "18878420",
    "name": "Stomping Ground La Boca",
    "timings": "7 AM to 10:30 PM (Mon-Fri), 9 AM to 6 PM (Sat-Sun)",
    "price_range": 2,
    "average_cost_for_two": 30,
    "phone": "Not available for this place",
    "address": "Nomadic Location",
    "latitude": "-37.8217613468",
    "longitude": "144.9689260125",
    "base_city": "Melbourne"
  },
  {
    "z_id": "18779455",
    "name": "South Melbourne Dim Sims",
    "timings": "8 AM to 3 PM (Wed, Sat-Sun), 8 AM to 6 PM (Thu-Fri), Mon & Tue Closed",
    "price_range": 1,
    "average_cost_for_two": 20,
    "phone": "Not available for this place",
    "address": "Corner Cramer Street and Mary street, Preston, Melbourne",
    "latitude": "-37.7388505332",
    "longitude": "145.0020492822",
    "base_city": "Melbourne"
  },
  {
    "z_id": "18668251",
    "name": "Sandwich Chefs",
    "timings": "8 AM to 5 PM",
    "price_range": 2,
    "average_cost_for_two": 30,
    "phone": "0406 208 298",
    "address": "Kiosk K06, Sandwich Chefs, Stockand Point Cook Shopping Centre, Murnong St, Point Cook",
    "latitude": "-37.8841058201",
    "longitude": "144.7357059270",
    "base_city": "Melbourne"
  },
  {
    "z_id": "18793786",
    "name": "Lucky Start",
    "timings": "9:30 AM to 6 PM (Mon-Wed, Sat), 9 AM to 8:30 PM (Thu-Fri), 10 AM to 5 PM (Sun)",
    "price_range": 1,
    "average_cost_for_two": 25,
    "phone": "Not available for this place",
    "address": "Carrum Downs Regional Shopping Centre 100 Hall Road, Carrum Downs, Melbourne",
    "latitude": "-38.1023788083",
    "longitude": "145.1843734458",
    "base_city": "Melbourne"
  },
  {
    "z_id": "18853391",
    "name": "Bean on Track",
    "timings": "6:30 AM to 10:30 AM",
    "price_range": 1,
    "average_cost_for_two": 10,
    "phone": "0488 239 952",
    "address": "2 Clynden Avenue, Malvern East, Melbourne",
    "latitude": "-37.8689733982",
    "longitude": "145.0628110394",
    "base_city": "Melbourne"
  },
  {
    "z_id": "18812476",
    "name": "Tokyo Sushi Takeaway",
    "timings": "8:30 AM to 5:30 PM (Mon-Thu), 8:30 AM to 6 PM (Fri-Sat), 8:30 AM to 4:30 PM (Sun)",
    "price_range": 1,
    "average_cost_for_two": 20,
    "phone": "0413 215 523",
    "address": "426 Nepean Highway, Aspendale & Chelsea, Melbourne",
    "latitude": "-38.0537529256",
    "longitude": "145.1164807007",
    "base_city": "Melbourne"
  },
  {
    "z_id": "17744133",
    "name": "Banh Xeo Bar",
    "timings": "11 AM to 4 PM (Mon-Wed, Sun), 11 AM to 8 PM (Thu), 11 AM to 9 PM (Fri-Sat)",
    "price_range": 2,
    "average_cost_for_two": 40,
    "phone": "0401 526 100",
    "address": "65/71 Mentmore Avenue, Rosebery, Sydney",
    "latitude": "-33.9170408926",
    "longitude": "151.2029376626",
    "base_city": "Sydney"
  },
  {
    "z_id": "16716223",
    "name": "Subway Snacks",
    "timings": "5 AM to 6 PM (Mon-Fri), Sat & Sun Closed",
    "price_range": 2,
    "average_cost_for_two": 30,
    "phone": "Not available for this place",
    "address": "Exit 7, Railway Square, Central Station, Haymarket, Sydney",
    "latitude": "-33.8857075332",
    "longitude": "151.2068101019",
    "base_city": "Sydney"
  },
  {
    "z_id": "19126296",
    "name": "Demochi Donut",
    "timings": "6 PM to 9 PM (Fri-Sat), Mon, Tue, Wed, Thu & Sun Closed",
    "price_range": 1,
    "average_cost_for_two": 0,
    "phone": "Not available for this place",
    "address": "286 Princes Highway, Banksia, Sydney",
    "latitude": "-33.9448377007",
    "longitude": "151.1422553659",
    "base_city": "Sydney"
  },
  {
    "z_id": "17742776",
    "name": "Mojo Picon",
    "timings": "9 AM to 2:30 PM (Wed), 11 AM to 3 PM (Thu-Fri), 9 AM to 3 PM (Sat), 11 AM to 4 PM (Sun), Mon & Tue Closed",
    "price_range": 2,
    "average_cost_for_two": 30,
    "phone": "02 9558 0140",
    "address": "Shop G-06/215/122 Lang Rd, Moore Park, Sydney",
    "latitude": "-33.8940965418",
    "longitude": "151.2270245701",
    "base_city": "Sydney"
  },
  {
    "z_id": "17743771",
    "name": "Deli Hub",
    "timings": "7:30 AM to 6 PM (Mon-Wed, Fri), 7:30 AM to 9 PM (Thu), 7:30 AM to 5:30 PM (Sat), 7:30 AM to 5 PM (Sun)",
    "price_range": 1,
    "average_cost_for_two": 20,
    "phone": "02 9144 5999",
    "address": "Level 1 Shop 66, 166 Mona Vale Road, St Ives, Sydney",
    "latitude": "-33.7299330381",
    "longitude": "151.1595321447",
    "base_city": "Sydney"
  },
  {
    "z_id": "15545117",
    "name": "Coffee Express",
    "timings": "5:30 AM to 5 PM",
    "price_range": 1,
    "average_cost_for_two": 10,
    "phone": "Not available for this place",
    "address": "Platform 1-2, Bondi Junction Train Station, Bondi Junction, Sydney",
    "latitude": "-33.8913254381",
    "longitude": "151.2482874468",
    "base_city": "Sydney"
  },
  {
    "z_id": "17747277",
    "name": "Koshari Korner",
    "timings": "8 AM to 4 PM (Tue-Sun), Mon Closed",
    "price_range": 2,
    "average_cost_for_two": 30,
    "phone": "0404 440 008",
    "address": "142 Addison Road, Marrickville, Sydney *Nomadic Location*",
    "latitude": "-33.9023970686",
    "longitude": "151.1613728106",
    "base_city": "Sydney"
  },
  {
    "z_id": "17746294",
    "name": "Flo Viennooserie",
    "timings": "7 AM to 12 Noon (Sun), Mon, Tue, Wed, Thu, Fri & Sat Closed",
    "price_range": 1,
    "average_cost_for_two": 15,
    "phone": "0402 115 014",
    "address": "Nomadic Location, Sydney",
    "latitude": "-33.9138982531",
    "longitude": "151.2049660832",
    "base_city": "Sydney"
  },
  {
    "z_id": "17747123",
    "name": "Get Sum Dim Sum",
    "timings": "9:50 AM a 10:10 AM (Seg),10 AM a 8 PM (Ter-Dom)",
    "price_range": 1,
    "average_cost_for_two": 0,
    "phone": "Not available for this place",
    "address": "Nomadic Location, Campsie, Sydney",
    "latitude": "-33.9229137982",
    "longitude": "151.1019923911",
    "base_city": "Sydney"
  },
  {
    "z_id": "17746974",
    "name": "Khao Neow Thai Street Food",
    "timings": "9:50 AM a 10:10 AM (Seg),10 AM a 8 PM (Ter-Dom)",
    "price_range": 1,
    "average_cost_for_two": 25,
    "phone": "Not available for this place",
    "address": "429A Pitt Street, Haymarket, Sydney",
    "latitude": "-33.8789808683",
    "longitude": "151.2070240080",
    "base_city": "Sydney"
  },
  {
    "z_id": "15547646",
    "name": "The Smoothie Bowl Shack",
    "timings": "10 AM to 4 PM (Sat), Mon, Tue, Wed, Thu, Fri & Sun Closed",
    "price_range": 1,
    "average_cost_for_two": 0,
    "phone": "Not available for this place",
    "address": "Glebe Markets, Glebe Public School, Glebe Point Rd, Glebe, Sydney",
    "latitude": "-33.8833016152",
    "longitude": "151.1906829849",
    "base_city": "Sydney"
  },
  {
    "z_id": "17748174",
    "name": "Puffle",
    "timings": "9:50 AM a 10:10 AM (Seg),10 AM a 8 PM (Ter-Dom)",
    "price_range": 1,
    "average_cost_for_two": 0,
    "phone": "0421 111 691",
    "address": "Nomadic Location, Sydney",
    "latitude": "-33.9169430000",
    "longitude": "151.0273420000",
    "base_city": "Sydney"
  },
  {
    "z_id": "17748054",
    "name": "The Corn Dog Avenue",
    "timings": "9:30 AM to 5 PM (Sat-Sun), Mon, Tue, Wed, Thu & Fri Closed",
    "price_range": 1,
    "average_cost_for_two": 0,
    "phone": "0433 993 536",
    "address": "601 Sunnyholt Road, Parklea, Sydney",
    "latitude": "-33.7230400000",
    "longitude": "150.9319970000",
    "base_city": "Sydney"
  },
  {
    "z_id": "19185089",
    "name": "Walker Doughnuts Pop-Up",
    "timings": "10 AM to 6 PM (Mon-Sat), 11 AM to 5 PM (Sun)",
    "price_range": 1,
    "average_cost_for_two": 20,
    "phone": "Not available for this place",
    "address": "The Galeries, 500 George Street, CBD, Sydney",
    "latitude": "-33.8728260000",
    "longitude": "151.2073480000",
    "base_city": "Sydney"
  },
  {
    "z_id": "17747097",
    "name": "Fruitezy Juice Station",
    "timings": "9:30 AM to 6 PM (Mon-Wed), 9:30 AM to 9:30 PM (Thu), 7:30 AM to 6 PM (Fri), 7 AM to 6 PM (Sat), 10 AM to 6 PM (Sun)",
    "price_range": 1,
    "average_cost_for_two": 25,
    "phone": "Not available for this place",
    "address": "Level 1, Westfield Miranda, 600 Kingsway, Miranda, Sydney",
    "latitude": "-34.0344728923",
    "longitude": "151.0995787382",
    "base_city": "Sydney"
  },
  {
    "z_id": "16612242",
    "name": "Jasmine Greens Park Kiosk",
    "timings": "7:30 AM to 4 PM (Mon-Sun)",
    "price_range": 2,
    "average_cost_for_two": 20,
    "phone": "(02) 4344 5398",
    "address": "Peninsula Recreation Precinct Sydney Ave, Umina Beach, Umina Beach",
    "latitude": "-33.5258489000",
    "longitude": "151.3147647000",
    "base_city": "Umina Beach"
  },
  {
    "z_id": "16601915",
    "name": "Comida Rica",
    "timings": "",
    "price_range": 2,
    "average_cost_for_two": 30,
    "phone": "0415 257 295",
    "address": "Various Locations, Perth CBD, Perth",
    "latitude": "-31.9554254000",
    "longitude": "115.8585336000",
    "base_city": "Perth"
  },
  {
    "z_id": "16601040",
    "name": "Hey Pesto",
    "timings": "",
    "price_range": 1,
    "average_cost_for_two": 25,
    "phone": "0402 945 646",
    "address": "Nomadic Location, Perth CBD, Perth",
    "latitude": "-31.9530044000",
    "longitude": "115.8574693000",
    "base_city": "Perth"
  },
  {
    "z_id": "16601033",
    "name": "Amaizing",
    "timings": "Closed (Mon, Tue, Wed, Thu, Sun), 6 PM to 10 PM (Fri),5 PM to 9 PM (Sat)",
    "price_range": 2,
    "average_cost_for_two": 30,
    "phone": "0427 358 043",
    "address": "Nomadic Location, Perth CBD, Perth",
    "latitude": "-31.9530044000",
    "longitude": "115.8574693000",
    "base_city": "Perth"
  },
  {
    "z_id": "17841730",
    "name": "Cocktail Gastronomy",
    "timings": "",
    "price_range": 1,
    "average_cost_for_two": 0,
    "phone": "0428 823 569",
    "address": "Nomadic Location, North Perth, Perth",
    "latitude": "-31.9271070000",
    "longitude": "115.8526330000",
    "base_city": "Perth"
  },
  {
    "z_id": "16601039",
    "name": "Kool Kakes",
    "timings": "8 AM to 6 PM (Mon-Sun)",
    "price_range": 1,
    "average_cost_for_two": 0,
    "phone": "0431 327 475",
    "address": "Darlington, Darlington",
    "latitude": "-31.9183931000",
    "longitude": "116.0794694000",
    "base_city": "Perth"
  },
  {
    "z_id": "16600847",
    "name": "Cooee it's Bluey",
    "timings": "Closed (Mon-Fri),8 AM to 5 PM (Sat-Sun)",
    "price_range": 1,
    "average_cost_for_two": 0,
    "phone": "Not available for this place",
    "address": "Cnr Of Whitfords Ave & Northshore Dve, Kallaroo",
    "latitude": "-31.7994000000",
    "longitude": "115.7348798000",
    "base_city": "Perth"
  },
  {
    "z_id": "16601074",
    "name": "The Green Mo",
    "timings": "",
    "price_range": 1,
    "average_cost_for_two": 0,
    "phone": "0451 179 838",
    "address": "Various Locations, Perth",
    "latitude": "-31.9528536000",
    "longitude": "115.8573389000",
    "base_city": "Perth"
  },
  {
    "z_id": "16601513",
    "name": "Justchillin Van",
    "timings": "",
    "price_range": 2,
    "average_cost_for_two": 30,
    "phone": "0435 066 414",
    "address": "Nomadic Location, Gosnells, Perth",
    "latitude": "-32.0914252000",
    "longitude": "116.0129162000",
    "base_city": "Perth"
  },
  {
    "z_id": "16601931",
    "name": "Guru Bites",
    "timings": "",
    "price_range": 1,
    "average_cost_for_two": 0,
    "phone": "0469 292 107",
    "address": "7th Ave, Inglewood, Perth",
    "latitude": "-31.9227091000",
    "longitude": "115.8830455000",
    "base_city": "Perth"
  },
  {
    "z_id": "16601724",
    "name": "Hummingbird Pantry",
    "timings": "",
    "price_range": 1,
    "average_cost_for_two": 0,
    "phone": "Not available for this place",
    "address": "Murray St, Perth",
    "latitude": "-31.9523592000",
    "longitude": "115.8571620000",
    "base_city": "Perth"
  },
  {
    "z_id": "18273654",
    "name": "Coco Lycious",
    "timings": "",
    "price_range": 1,
    "average_cost_for_two": 20,
    "phone": "0423 739 237",
    "address": "Nomadic Location, Bayswater, Perth",
    "latitude": "-31.9200000000",
    "longitude": "115.9000000000",
    "base_city": "Perth"
  },
  {
    "z_id": "18273651",
    "name": "Pockets Street Food",
    "timings": "",
    "price_range": 1,
    "average_cost_for_two": 0,
    "phone": "0422 352 614",
    "address": "Beaufort Street, Bayswater, Perth",
    "latitude": "-31.9200000000",
    "longitude": "115.9000000000",
    "base_city": "Perth"
  },
  {
    "z_id": "16601673",
    "name": "JJ's Sweet Bliss",
    "timings": "",
    "price_range": 1,
    "average_cost_for_two": 0,
    "phone": "00 4314 2464",
    "address": "Swan Rd, Middle Swan, Perth",
    "latitude": "-31.8556453000",
    "longitude": "116.0217125000",
    "base_city": "Perth"
  },
  {
    "z_id": "16600141",
    "name": "New Bean on the Block",
    "timings": "Breakfast (Sun, Mon, Tue, Wed, Thu, Fri, Sat)",
    "price_range": 1,
    "average_cost_for_two": 0,
    "phone": "Not available for this place",
    "address": "Nomadic Location, Kalamunda, Perth",
    "latitude": "-31.9733853000",
    "longitude": "116.0601384000",
    "base_city": "Perth"
  },
  {
    "z_id": "18355804",
    "name": "He Brew Espresso",
    "timings": "6AM to 12Noon (Mon-Fri),7AM to 12Noon (Sat),Closed (Sun)",
    "price_range": 1,
    "average_cost_for_two": 15,
    "phone": "0430 746 319",
    "address": "Corner of  Midland & Ridge Hill Roads, Maida Vale, Kalamunda, Perth",
    "latitude": "-31.9471368961",
    "longitude": "116.0232493877",
    "base_city": "Perth"
  },
  {
    "z_id": "17841704",
    "name": "Waffle on a Stick",
    "timings": "5 PM to 9 PM (Mon-Tue),5 PM to 10 PM (Wed),5 PM to 11 PM (Thu-Fri),4 PM to 10 PM (Sat),4 PM to 9 PM (Sun)",
    "price_range": 1,
    "average_cost_for_two": 0,
    "phone": "Not available for this place",
    "address": "2 Roe Street, Perth",
    "latitude": "-31.9508720000",
    "longitude": "115.8607508000",
    "base_city": "Perth"
  },
  {
    "z_id": "17841727",
    "name": "Nicely Spiced",
    "timings": "",
    "price_range": 1,
    "average_cost_for_two": 0,
    "phone": "0403 739 180",
    "address": "Nomadic Location, Banjup, Perth",
    "latitude": "-32.1320878000",
    "longitude": "115.8797732000",
    "base_city": "Perth"
  },
  {
    "z_id": "17841605",
    "name": "Greek St Grill",
    "timings": "",
    "price_range": 1,
    "average_cost_for_two": 0,
    "phone": "0499 111 098",
    "address": "Nomadic Location, Perth CBD, Perth",
    "latitude": "-31.9524160000",
    "longitude": "115.8592629000",
    "base_city": "Perth"
  },
  {
    "z_id": "16601071",
    "name": "Pauly K's Kitchen",
    "timings": "",
    "price_range": 1,
    "average_cost_for_two": 0,
    "phone": "0432 065 205",
    "address": "Nomadic Location, Perth CBD, Perth",
    "latitude": "-31.9528536000",
    "longitude": "115.8573389000",
    "base_city": "Perth"
  },
  {
    "z_id": "16601992",
    "name": "Scrumdiddly Crepes",
    "timings": "",
    "price_range": 1,
    "average_cost_for_two": 0,
    "phone": "0410 877 743",
    "address": "Nomadic Location",
    "latitude": "-32.0484787000",
    "longitude": "115.7481784000",
    "base_city": "Perth"
  },
  {
    "z_id": "16613993",
    "name": "Eagle Boys Pizza Fairfield Waters",
    "timings": "Dinner, Late (Sun, Mon, Tue, Wed, Thu, Fri, Sat)",
    "price_range": 1,
    "average_cost_for_two": 7,
    "phone": "(03) 0032 4532",
    "address": "Unit 18, 12 Village Dr, Idalia",
    "latitude": "-19.3081264000",
    "longitude": "146.8074483000",
    "base_city": "Townsville"
  },
  {
    "z_id": "16616170",
    "name": "1234 Japan",
    "timings": "12 Midnight to 11:30 PM (Mon-Sun)",
    "price_range": 1,
    "average_cost_for_two": 7,
    "phone": "0431 452 996",
    "address": "22 Robert Towns Crs, Townsville",
    "latitude": "-19.3471642000",
    "longitude": "146.7524406000",
    "base_city": "Thuringowa Central"
  },
  {
    "z_id": "16616171",
    "name": "World Cuisine",
    "timings": "12 Midnight to 11:30 PM (Mon-Sun)",
    "price_range": 1,
    "average_cost_for_two": 7,
    "phone": "0431 452 996",
    "address": "22 Robert Towns Crs, Townsville",
    "latitude": "-19.3471642000",
    "longitude": "146.7524406000",
    "base_city": "Thuringowa Central"
  },
  {
    "z_id": "16613837",
    "name": "Eagle Boys Pizza Aitkenvale",
    "timings": "Lunch, Dinner, Late (Sun, Fri, Sat), Dinner, Late (Mon-Thu)",
    "price_range": 1,
    "average_cost_for_two": 7,
    "phone": "1300 324 532",
    "address": "278 Ross River Road, Aitkenvale",
    "latitude": "-19.2972700000",
    "longitude": "146.7672420000",
    "base_city": "Townsville"
  },
  {
    "z_id": "17888563",
    "name": "Bitchin Burger Bar Food Truck",
    "timings": "9:50 AM a 10:10 AM (Seg),10 AM a 8 PM (Ter-Dom)",
    "price_range": 1,
    "average_cost_for_two": 0,
    "phone": "0447 573 957",
    "address": "Nomadic Location, Townsville",
    "latitude": "-19.2821030000",
    "longitude": "146.7832270000",
    "base_city": "Townsville"
  },
  {
    "z_id": "16613907",
    "name": "Eagle Boys Pizza Kirwan",
    "timings": "",
    "price_range": 1,
    "average_cost_for_two": 7,
    "phone": "1300 324 534",
    "address": "109 Thuringowa Drive, Kirwan",
    "latitude": "-19.3035300000",
    "longitude": "146.7349850000",
    "base_city": "Kirwan"
  },
  {
    "z_id": "16600945",
    "name": "Rancho Latino",
    "timings": "Closed (Mon, Tue, Wed, Thu, Sat, Sun), 5 PM to 9 PM (Fri)",
    "price_range": 1,
    "average_cost_for_two": 0,
    "phone": "Not available for this place",
    "address": "Twilight Hawkers Market Forrest Pl, Perth CBD, Perth",
    "latitude": "-31.9525739000",
    "longitude": "115.8610488000",
    "base_city": "Perth"
  },
  {
    "z_id": "18317985",
    "name": "The Pink Van",
    "timings": "8 AM to 5 PM (Mon-Fri),Closed (Sat-Sun)",
    "price_range": 1,
    "average_cost_for_two": 15,
    "phone": "0404 096 333",
    "address": "Curtin University-Bentley Campus. Creative Cornor., Bentley, Perth",
    "latitude": "-32.0087532194",
    "longitude": "115.8937333164",
    "base_city": "Perth"
  },
  {
    "z_id": "18153289",
    "name": "The Pasta Truck",
    "timings": "",
    "price_range": 1,
    "average_cost_for_two": 0,
    "phone": "00 4164 7383",
    "address": "8/26 Lancaster Street, Perth",
    "latitude": "-31.9090975121",
    "longitude": "115.8761594830",
    "base_city": "Perth"
  },
  {
    "z_id": "16601856",
    "name": "Annie's Woodfired Pizza",
    "timings": "",
    "price_range": 1,
    "average_cost_for_two": 0,
    "phone": "0423 240 191",
    "address": "Bardon Place, Maylands, Perth",
    "latitude": "-31.9348029000",
    "longitude": "115.8890700000",
    "base_city": "Perth"
  },
  {
    "z_id": "16602032",
    "name": "Juice Face",
    "timings": "",
    "price_range": 1,
    "average_cost_for_two": 0,
    "phone": "0422 267 681",
    "address": "Nomadic Location",
    "latitude": "-31.9373926000",
    "longitude": "115.8053813000",
    "base_city": "Perth"
  },
  {
    "z_id": "18340761",
    "name": "Gourmet Poshdog",
    "timings": "11 AM to 2 PM (Mon-Fri),Closed (Sat-Sun)",
    "price_range": 1,
    "average_cost_for_two": 20,
    "phone": "0474 044 908",
    "address": "60A Frame Court, Perth, Floreat, Perth",
    "latitude": "-31.9400000000",
    "longitude": "115.8000000000",
    "base_city": "Perth"
  },
  {
    "z_id": "16601472",
    "name": "Gourmet Coaster Mobile Food and Coffee Truck",
    "timings": "",
    "price_range": 1,
    "average_cost_for_two": 0,
    "phone": "00 4142 2792",
    "address": "Nomadic Location, Burns Beach",
    "latitude": "-31.7267880000",
    "longitude": "115.7207330000",
    "base_city": "Perth"
  },
  {
    "z_id": "16601417",
    "name": "Milky Monster",
    "timings": "",
    "price_range": 1,
    "average_cost_for_two": 0,
    "phone": "00 4413 3779",
    "address": "Beeliar Dr Exit, Success",
    "latitude": "-32.1279582000",
    "longitude": "115.8584892000",
    "base_city": "Perth"
  },
  {
    "z_id": "16601073",
    "name": "Happy Chappy",
    "timings": "",
    "price_range": 1,
    "average_cost_for_two": 10,
    "phone": "0404 096 333",
    "address": "Various Locations, Perth CBD, Perth",
    "latitude": "-31.9528536000",
    "longitude": "115.8573389000",
    "base_city": "Perth"
  },
  {
    "z_id": "16601550",
    "name": "Truffles By Trish",
    "timings": "",
    "price_range": 1,
    "average_cost_for_two": 0,
    "phone": "0423 863 238",
    "address": "Warwick Rd, Perth",
    "latitude": "-31.8347626000",
    "longitude": "115.7614911000",
    "base_city": "Perth"
  },
  {
    "z_id": "17841693",
    "name": "Armanda's Cuisine",
    "timings": "",
    "price_range": 1,
    "average_cost_for_two": 0,
    "phone": "0417 968 553",
    "address": "4 Millan Pl, Hamilton Hill",
    "latitude": "-32.0874610000",
    "longitude": "115.7741770000",
    "base_city": "Perth"
  },
  {
    "z_id": "16601754",
    "name": "La Tradicion",
    "timings": "Closed (Mon-Fri),5 PM to 9 PM (Sat),8 AM to 12 Noon (Sun)",
    "price_range": 1,
    "average_cost_for_two": 0,
    "phone": "0457 361 120",
    "address": "Nomadic Location, Perth",
    "latitude": "-31.9310870000",
    "longitude": "115.8952480000",
    "base_city": "Perth"
  },
  {
    "z_id": "17841702",
    "name": "Serendipity Ice Cream",
    "timings": "5 PM to 9 PM (Mon-Tue),5 PM to 10 PM (Wed),5 PM to 11 PM (Thu-Fri),4 PM to 11 PM (Sat),4 PM to 9 PM (Sun)",
    "price_range": 1,
    "average_cost_for_two": 0,
    "phone": "Not available for this place",
    "address": "2 Roe Street, Perth CBD, Perth",
    "latitude": "-31.9508720000",
    "longitude": "115.8607508000",
    "base_city": "Perth"
  },
  {
    "z_id": "18146716",
    "name": "Base WF Pizza",
    "timings": "8 AM to 12 Midnight (Mon-Sun)",
    "price_range": 1,
    "average_cost_for_two": 0,
    "phone": "0422 407 602",
    "address": "Nomadic Location, Kingsley, Perth",
    "latitude": "-31.8161753651",
    "longitude": "115.7988679485",
    "base_city": "Perth"
  },
  {
    "z_id": "16602041",
    "name": "Breadtime Story",
    "timings": "Closed (Mon, Wed, Thu, Fri), 3 PM to 8 PM (Tue),9 AM to 2 PM (Sat),8 AM to 12 Noon (Sun)",
    "price_range": 1,
    "average_cost_for_two": 0,
    "phone": "0434 265 918",
    "address": "Healy Rd, Hamilton Hill, Spearwood, Perth",
    "latitude": "-32.0779964000",
    "longitude": "115.7760813000",
    "base_city": "Perth"
  },
  {
    "z_id": "17841699",
    "name": "Kiyamachi-Tei",
    "timings": "5 PM to 9 PM (Mon-Tue),5 PM to 10 PM (Wed),5 PM to 11 PM (Thu-Fri),4 PM to 10 PM (Sat),4 PM to 9 PM (Sun)",
    "price_range": 1,
    "average_cost_for_two": 0,
    "phone": "Not available for this place",
    "address": "2 Roe Street, Perth",
    "latitude": "-31.9508720000",
    "longitude": "115.8607508000",
    "base_city": "Perth"
  },
  {
    "z_id": "17841692",
    "name": "Lolly Bus",
    "timings": "",
    "price_range": 1,
    "average_cost_for_two": 0,
    "phone": "(08) 9456 1660",
    "address": "Nomadic Location",
    "latitude": "-32.0580230000",
    "longitude": "115.9292230000",
    "base_city": "Perth"
  },
  {
    "z_id": "17841701",
    "name": "Masak Masak",
    "timings": "5 PM to 9 PM (Mon-Tue),5 PM to 10 PM (Wed),5 PM to 11 PM (Thu-Fri),4 PM to 10 PM (Sat),4 PM to 9 PM (Sun)",
    "price_range": 1,
    "average_cost_for_two": 0,
    "phone": "Not available for this place",
    "address": "2 Roe Street, Perth",
    "latitude": "-31.9508720000",
    "longitude": "115.8607508000",
    "base_city": "Perth"
  },
  {
    "z_id": "16601516",
    "name": "Porta Pizza",
    "timings": "",
    "price_range": 1,
    "average_cost_for_two": 0,
    "phone": "0419 868 489",
    "address": "Nomadic Location",
    "latitude": "-31.8993979000",
    "longitude": "115.9721581000",
    "base_city": "Perth"
  },
  {
    "z_id": "16601055",
    "name": "Creamy Ghees",
    "timings": "",
    "price_range": 2,
    "average_cost_for_two": 30,
    "phone": "0422 318 542",
    "address": "Nomadic Location, Perth CBD, Perth",
    "latitude": "-31.9530044000",
    "longitude": "115.8574693000",
    "base_city": "Perth"
  },
  {
    "z_id": "16606855",
    "name": "BP Roadhouse",
    "timings": "Breakfast, Lunch, Dinner (Sun, Mon, Tue, Wed, Thu), Breakfast, Lunch, Dinner, Late (Fri-Sat)",
    "price_range": 2,
    "average_cost_for_two": 20,
    "phone": "(03) 5422 1848",
    "address": "371 Cobb And Co Rd, Carlsruhe",
    "latitude": "-37.2921290000",
    "longitude": "144.5049390000",
    "base_city": "Carlsruhe"
  },
  {
    "z_id": "16602051",
    "name": "Eagle Boys Pizza Katherine",
    "timings": "Dinner, Late (Sun, Mon, Tue, Wed, Thu, Fri, Sat)",
    "price_range": 1,
    "average_cost_for_two": 7,
    "phone": "1300 324 534",
    "address": "7 Victoria Highway, Katherine",
    "latitude": "-14.4656650000",
    "longitude": "132.2604520000",
    "base_city": "Katherine"
  },
  {
    "z_id": "18806304",
    "name": "Dandenong Juice",
    "timings": "7 AM to 4 PM (Tue, Sat), 7 AM to 5 PM (Fri), 10 AM to 3 PM (Sun), Mon, Wed & Thu Closed",
    "price_range": 1,
    "average_cost_for_two": 20,
    "phone": "Not available for this place",
    "address": "Dandenong Market, L3-4 Market Square, 16 Cleeland Street, Dandenong, Melbourne",
    "latitude": "-37.9842437647",
    "longitude": "145.2154743299",
    "base_city": "Melbourne"
  },
  {
    "z_id": "18781125",
    "name": "Miss Kitty's Shakes 'N Crepes",
    "timings": "8 AM to 3 PM (Mon-Wed, Sat-Sun), 8 AM to 6 PM (Thu-Fri)",
    "price_range": 1,
    "average_cost_for_two": 20,
    "phone": "0420 278 671",
    "address": "Preston Markets, 2/30A The Centreway, Preston, Melbourne",
    "latitude": "-37.7387866346",
    "longitude": "145.0019523874",
    "base_city": "Melbourne"
  },
  {
    "z_id": "18657521",
    "name": "Eat The Chicken",
    "timings": "11 AM to 5 PM (Tue-Sun), Mon Closed",
    "price_range": 2,
    "average_cost_for_two": 40,
    "phone": "0450 019 997",
    "address": "793 Burke Road, Camberwell, Melbourne",
    "latitude": "-37.8292676480",
    "longitude": "145.0570369139",
    "base_city": "Melbourne"
  },
  {
    "z_id": "18793784",
    "name": "My World",
    "timings": "9:30 AM to 6 PM (Mon-Wed, Sat), 9:30 AM to 8 PM (Thu-Fri), 10 AM to 5 PM (Sun)",
    "price_range": 1,
    "average_cost_for_two": 25,
    "phone": "Not available for this place",
    "address": "Carrum Downs Regional Shopping Centre, Kiosk 3, 100 Hall Road, Carrum Downs, Melbourne",
    "latitude": "-38.1021490103",
    "longitude": "145.1843010262",
    "base_city": "Melbourne"
  },
  {
    "z_id": "19129923",
    "name": "Coffee and Donuts",
    "timings": "6:30 AM to 6:30 PM",
    "price_range": 2,
    "average_cost_for_two": 35,
    "phone": "Not available for this place",
    "address": "415-417 Plenty Road, Preston, Melbourne",
    "latitude": "-37.7389237116",
    "longitude": "145.0113478303",
    "base_city": "Melbourne"
  },
  {
    "z_id": "19166157",
    "name": "Flipboard",
    "timings": "8 AM to 4 PM (Mon-Fri), Sat & Sun Closed",
    "price_range": 2,
    "average_cost_for_two": 30,
    "phone": "Not available for this place",
    "address": "Monash Peninsula, Building U, Moorooduc Highway, Frankston, Melbourne",
    "latitude": "-38.1519378548",
    "longitude": "145.1344508305",
    "base_city": "Melbourne"
  },
  {
    "z_id": "18398803",
    "name": "Monsieur Crepe",
    "timings": "",
    "price_range": 2,
    "average_cost_for_two": 30,
    "phone": "0490 512 691",
    "address": "Nomadic Location, Olinda, Melbourne",
    "latitude": "-37.8561142195",
    "longitude": "145.3654366359",
    "base_city": "Melbourne"
  },
  {
    "z_id": "18556255",
    "name": "Hungry Souls",
    "timings": "6 AM to 1 PM (Mon-Fri), 9 AM to 2 PM (Sat), 10 AM to 2 PM (Sun)",
    "price_range": 1,
    "average_cost_for_two": 15,
    "phone": "0416 148 183",
    "address": "Balaclava Station, Balaclava, Melbourne, VIC",
    "latitude": "-37.8694058719",
    "longitude": "144.9934896827",
    "base_city": "Melbourne"
  },
  {
    "z_id": "18731501",
    "name": "Sandwich Chefs",
    "timings": "9 AM to 5:30 PM (Mon-Thu), 9 AM to 9 PM (Fri), 9 AM to 5 PM (Sat), 10 AM to 5 PM (Sun)",
    "price_range": 3,
    "average_cost_for_two": 30,
    "phone": "0421 195 752",
    "address": "Waurn Ponds Shopping Centre, Kiosk 965, 173 - 199 Pioneer Road, Waurn Ponds, Geelong",
    "latitude": "-38.1991941000",
    "longitude": "144.3184744000",
    "base_city": "Geelong"
  },
  {
    "z_id": "17985752",
    "name": "Fiery Deli",
    "timings": "",
    "price_range": 3,
    "average_cost_for_two": 30,
    "phone": "0438 142 438",
    "address": "Nomadic Location, Burleigh Heads, Gold Coast",
    "latitude": "-28.0887560000",
    "longitude": "153.4511200000",
    "base_city": "Gold Coast"
  },
  {
    "z_id": "18607468",
    "name": "World Famous Funnel Cakes",
    "timings": "4 PM to 10 PM (Fri-Sat), Mon, Tue, Wed, Thu & Sun Closed",
    "price_range": 2,
    "average_cost_for_two": 15,
    "phone": "Not available for this place",
    "address": "Night Quarter, 1 Town Centre Drive, Helensvale, Gold Coast",
    "latitude": "-27.9233070000",
    "longitude": "153.3381000000",
    "base_city": "Gold Coast"
  },
  {
    "z_id": "17842490",
    "name": "Street Burger",
    "timings": "",
    "price_range": 1,
    "average_cost_for_two": 7,
    "phone": "0418 450 540",
    "address": "21-23 Hillcrest Parade, Miami",
    "latitude": "-28.0638160000",
    "longitude": "153.4357830000",
    "base_city": "Gold Coast"
  },
  {
    "z_id": "17986607",
    "name": "Cosmos Burger",
    "timings": "",
    "price_range": 3,
    "average_cost_for_two": 30,
    "phone": "0487 249 649, 0450 527 424",
    "address": "Nomadic Location, Surfers Paradise, Gold Coast",
    "latitude": "-28.0015640000",
    "longitude": "153.4276780000",
    "base_city": "Gold Coast"
  },
  {
    "z_id": "17986621",
    "name": "Smoothjuice",
    "timings": "",
    "price_range": 3,
    "average_cost_for_two": 30,
    "phone": "0405 906 832",
    "address": "Various Locations, Burleigh Heads, Gold Coast",
    "latitude": "-28.0826310000",
    "longitude": "153.4475700000",
    "base_city": "Gold Coast"
  },
  {
    "z_id": "16615406",
    "name": "The Bean Mobile",
    "timings": "",
    "price_range": 1,
    "average_cost_for_two": 10,
    "phone": "0432 897 165",
    "address": "Various Locations, Surfers Paradise",
    "latitude": "-28.0011707000",
    "longitude": "153.4283167000",
    "base_city": "Gold Coast"
  },
  {
    "z_id": "19020871",
    "name": "Kebab Halal",
    "timings": "6 PM to 3 AM",
    "price_range": 1,
    "average_cost_for_two": 25,
    "phone": "Not available for this place",
    "address": "1474 North Road, Clayton, Melbourne",
    "latitude": "-37.9141888763",
    "longitude": "145.1220509782",
    "base_city": "Melbourne"
  },
  {
    "z_id": "18894808",
    "name": "Veg By Nature",
    "timings": "Closed (Mon-Thu),5:30pm â€“ 11pm (Fri),12noon â€“ 11pm (Sat),12noon â€“ 10:30pm (Sun)",
    "price_range": 1,
    "average_cost_for_two": 25,
    "phone": "0449 166 555",
    "address": "710 High Street, Epping, Melbourne",
    "latitude": "-37.6512490000",
    "longitude": "145.0243530000",
    "base_city": "Melbourne"
  },
  {
    "z_id": "19004668",
    "name": "A Touch Of Spain",
    "timings": "11 AM to 6 PM",
    "price_range": 2,
    "average_cost_for_two": 40,
    "phone": "Not available for this place",
    "address": "location varies",
    "latitude": "-37.8224893940",
    "longitude": "144.9695107341",
    "base_city": "Melbourne"
  },
  {
    "z_id": "19092643",
    "name": "Kilsyth Kebab",
    "timings": "11:30 AM to 11:30 PM (Mon-Thu), 11:30 AM to 12 Midnight (Fri-Sun)",
    "price_range": 2,
    "average_cost_for_two": 40,
    "phone": "0456 396 915",
    "address": "152-154 Canterbury Road, Kilsyth South, Melbourne",
    "latitude": "-37.8213722928",
    "longitude": "145.3058178350",
    "base_city": "Melbourne"
  },
  {
    "z_id": "18854757",
    "name": "Dana's Falafel",
    "timings": "",
    "price_range": 1,
    "average_cost_for_two": 0,
    "phone": "0421 903 603",
    "address": "Nomadic Location",
    "latitude": "-37.8674496626",
    "longitude": "145.0042493641",
    "base_city": "Melbourne"
  },
  {
    "z_id": "19205919",
    "name": "Mini Public ",
    "timings": "9 AM to 4 PM",
    "price_range": 1,
    "average_cost_for_two": 20,
    "phone": "Not available for this place",
    "address": "South Wharf Promenade, South Wharf, Melbourne",
    "latitude": "-37.8243035218",
    "longitude": "144.9513793364",
    "base_city": "Melbourne"
  },
  {
    "z_id": "18016938",
    "name": "Bussy McBusface",
    "timings": "",
    "price_range": 2,
    "average_cost_for_two": 20,
    "phone": "Not available for this place",
    "address": "Nomadic Location, Mornington, Mornington Peninsula",
    "latitude": "-38.2346810000",
    "longitude": "145.0574390000",
    "base_city": "Mornington Peninsula"
  },
  {
    "z_id": "17965913",
    "name": "Lara Coffee Co",
    "timings": "4:30 AM to 9 AM (Mon-Fri), Sat & Sun Closed",
    "price_range": 2,
    "average_cost_for_two": 20,
    "phone": "Not available for this place",
    "address": "47 Church Avenue, Colo Vale, NSW",
    "latitude": "-34.4023016268",
    "longitude": "150.4916949570",
    "base_city": "Mittagong"
  },
  {
    "z_id": "17745773",
    "name": "Normaâ€™s Burger Bar",
    "timings": "Closed (Mon-Wed),5pm â€“ 9pm (Thu-Fri),5pm â€“ 8pm (Sat),10am â€“ 4pm (Sun)",
    "price_range": 3,
    "average_cost_for_two": 30,
    "phone": "0466 226 500",
    "address": "Location varies",
    "latitude": "-34.4250090275",
    "longitude": "150.8942247927",
    "base_city": "Wollongong"
  },
  {
    "z_id": "18932472",
    "name": "Yelken Kebabs",
    "timings": "12 Noon to 12 Midnight (Mon-Tue), 12 Noon to 2 AM (Wed-Thu), 12 Noon to 4 AM (Fri), 4 PM to 4 AM (Sat), 4 PM to 2 AM (Sun)",
    "price_range": 1,
    "average_cost_for_two": 0,
    "phone": "0419 522 727",
    "address": "14-22 Lauderdale Road, Narre Warren, Melbourne",
    "latitude": "-38.0251392268",
    "longitude": "145.3109391779",
    "base_city": "Melbourne"
  },
  {
    "z_id": "18231256",
    "name": "Wingster's Grilled Chicken",
    "timings": "",
    "price_range": 1,
    "average_cost_for_two": 0,
    "phone": "03 9077 4588",
    "address": "Nomadic Location, Chadstone, Melbourne",
    "latitude": "-37.8859168446",
    "longitude": "145.0852560997",
    "base_city": "Melbourne"
  },
  {
    "z_id": "18654901",
    "name": "Al-Kababji Meatworks Brazilian BBQ",
    "timings": "6 PM to 12 Midnight",
    "price_range": 2,
    "average_cost_for_two": 30,
    "phone": "0450 005 790",
    "address": "600 Sydney Road, Coburg, Melbourne",
    "latitude": "-37.7366479884",
    "longitude": "144.9667571113",
    "base_city": "Melbourne"
  },
  {
    "z_id": "18533064",
    "name": "Bites on Wheels",
    "timings": "",
    "price_range": 1,
    "average_cost_for_two": 25,
    "phone": "0409 980 043",
    "address": "Nomadic Location",
    "latitude": "-37.8250868934",
    "longitude": "144.7465752438",
    "base_city": "Melbourne"
  },
  {
    "z_id": "18022023",
    "name": "Pop Up Crepes",
    "timings": "",
    "price_range": 2,
    "average_cost_for_two": 30,
    "phone": "04 0287 2362",
    "address": "Nomadic Location",
    "latitude": "-37.8735245668",
    "longitude": "144.9767570570",
    "base_city": "Melbourne"
  },
  {
    "z_id": "18839632",
    "name": "Oh My Grill",
    "timings": "6 PM to 10 PM",
    "price_range": 2,
    "average_cost_for_two": 30,
    "phone": "0466 099 557",
    "address": "5/399 Melton Highway, Taylors Lakes, Melbourne",
    "latitude": "-37.6965070000",
    "longitude": "144.7759770000",
    "base_city": "Melbourne"
  },
  {
    "z_id": "19032862",
    "name": "Greensborough Crazy Kebabs",
    "timings": "",
    "price_range": 2,
    "average_cost_for_two": 30,
    "phone": "0477 239 698",
    "address": "183 Para Road, Greensborough, Melbourne",
    "latitude": "-37.7092390000",
    "longitude": "145.1124850000",
    "base_city": "Melbourne"
  },
  {
    "z_id": "18928993",
    "name": "Love Kebabs",
    "timings": "6 PM to 3 AM (Tue-Sun), Mon Closed",
    "price_range": 2,
    "average_cost_for_two": 35,
    "phone": "0490 364 487",
    "address": "1345 Sydney Road, Fawkner, Melbourne",
    "latitude": "-37.6969729396",
    "longitude": "144.9588422477",
    "base_city": "Melbourne"
  },
  {
    "z_id": "18227906",
    "name": "Flamin Skewers",
    "timings": "",
    "price_range": 2,
    "average_cost_for_two": 30,
    "phone": "0413 554 636",
    "address": "Nomadic Location, East Melbourne, Melbourne",
    "latitude": "-37.8088647963",
    "longitude": "144.9793748930",
    "base_city": "Melbourne"
  },
  {
    "z_id": "18703418",
    "name": "Romape Cibo da Strada",
    "timings": "8 AM to 4:30 PM",
    "price_range": 1,
    "average_cost_for_two": 20,
    "phone": "0405 741 649",
    "address": "Nomadic Location",
    "latitude": "-37.8773492788",
    "longitude": "145.0927146524",
    "base_city": "Melbourne"
  },
  {
    "z_id": "18806311",
    "name": "Shish Delish",
    "timings": "7 AM to 4 PM (Tue, Sat), 7 AM to 5 PM (Fri), 10 AM to 3 PM (Sun), Mon, Wed & Thu Closed",
    "price_range": 2,
    "average_cost_for_two": 30,
    "phone": "Not available for this place",
    "address": "Dandenong Market, 16 Cleeland Street, Dandenong, Melbourne",
    "latitude": "-37.9835165232",
    "longitude": "145.2155812830",
    "base_city": "Melbourne"
  },
  {
    "z_id": "18391341",
    "name": "Dilli6",
    "timings": "7 PM to 1 AM (Mon, Wed-Sun), Tue Closed",
    "price_range": 2,
    "average_cost_for_two": 40,
    "phone": "0434 702 844",
    "address": "Nomadic Location, Footscray, Melbourne",
    "latitude": "-37.7988086863",
    "longitude": "144.8905884102",
    "base_city": "Melbourne"
  },
  {
    "z_id": "19087287",
    "name": "St. Albans Kebabs",
    "timings": "1 PM to 11 PM",
    "price_range": 2,
    "average_cost_for_two": 30,
    "phone": "0450 816 157",
    "address": "25-27 St Albans Road, St Albans, Melbourne",
    "latitude": "-37.7488026622",
    "longitude": "144.8035772145",
    "base_city": "Melbourne"
  },
  {
    "z_id": "19005950",
    "name": "Commuter",
    "timings": "7:30 AM to 4:30 PM",
    "price_range": 2,
    "average_cost_for_two": 30,
    "phone": "Not available for this place",
    "address": "Nomadic Location",
    "latitude": "-37.8243668168",
    "longitude": "144.9504003301",
    "base_city": "Melbourne"
  },
  {
    "z_id": "18763021",
    "name": "Chai Aur Biryani",
    "timings": "6 PM to 2 AM (Tue-Sun), Mon Closed",
    "price_range": 1,
    "average_cost_for_two": 0,
    "phone": "0410 214 040",
    "address": "281 Heaths Road, Werribee, Melbourne",
    "latitude": "-37.8772100767",
    "longitude": "144.6763161197",
    "base_city": "Melbourne"
  },
  {
    "z_id": "16582522",
    "name": "The Little Coffee Van",
    "timings": "Closed (Mon-Fri),9 AM to 1 PM (Sat-Sun)",
    "price_range": 1,
    "average_cost_for_two": 15,
    "phone": "0422 180 413",
    "address": "Nomadic Location",
    "latitude": "-37.7787130287",
    "longitude": "145.0181616470",
    "base_city": "Melbourne"
  },
  {
    "z_id": "18755039",
    "name": "Monster Kebab",
    "timings": "2 PM to 2 AM",
    "price_range": 2,
    "average_cost_for_two": 35,
    "phone": "0450 997 057",
    "address": "13-17 Heatherton Road, Endeavour Hills, Melbourne",
    "latitude": "-37.9752161580",
    "longitude": "145.2620156854",
    "base_city": "Melbourne"
  },
  {
    "z_id": "19095585",
    "name": "The Rolling Stoves",
    "timings": "12 Noon to 4 PM, 6 PM to 8 PM (Mon-Sat), Sun Closed",
    "price_range": 1,
    "average_cost_for_two": 20,
    "phone": "0404 381 986",
    "address": "40 Maribyrnong Boulevard, Footscray, Melbourne",
    "latitude": "-37.7932410906",
    "longitude": "144.9006128311",
    "base_city": "Melbourne"
  },
  {
    "z_id": "18139993",
    "name": "Melbourne Paella Company",
    "timings": "7 AM to 4 PM (Mon-Tue, Sat), 7 AM to 5 PM (Wed-Fri), 10 AM to 3 PM (Sun)",
    "price_range": 2,
    "average_cost_for_two": 40,
    "phone": "0409 499 477",
    "address": "Food Truck, Nomadic Location",
    "latitude": "-37.9840458352",
    "longitude": "145.2161023021",
    "base_city": "Melbourne"
  },
  {
    "z_id": "18227905",
    "name": "Refresher Truck",
    "timings": "",
    "price_range": 1,
    "average_cost_for_two": 20,
    "phone": "0413 214 232",
    "address": "Nomadic Location, Derrimut, Melbourne",
    "latitude": "-37.7835010943",
    "longitude": "144.7722329199",
    "base_city": "Melbourne"
  },
  {
    "z_id": "18612439",
    "name": "Hokkaido Baked Cheese Tart",
    "timings": "9 AM to 7 PM (Mon-Wed, Sat), 9 AM to 9 PM (Thu-Fri), 10 AM to 7 PM (Sun)",
    "price_range": 1,
    "average_cost_for_two": 15,
    "phone": "(07) 3191 4524",
    "address": "Myer Centre, Shop 006A (Level A), 91 Queen Street, Brisbane CBD, Brisbane",
    "latitude": "-27.4706885791",
    "longitude": "153.0255439505",
    "base_city": "Brisbane"
  },
  {
    "z_id": "18600799",
    "name": "Orange Tea",
    "timings": "11 AM to 10 PM (Mon-Thu, Sun), 11 AM to 10:30 PM (Fri-Sat)",
    "price_range": 1,
    "average_cost_for_two": 15,
    "phone": "0413 925 505",
    "address": "Sunny Park, Shop K7, Corner of Mains Road & McCullough Street, Sunnybank, Brisbane",
    "latitude": "-27.5718839001",
    "longitude": "153.0657697097",
    "base_city": "Brisbane"
  },
  {
    "z_id": "16594432",
    "name": "Quench",
    "timings": "8:30 AM to 4:30 PM (Mon-Fri), 8 AM to 5 PM (Sat-Sun)",
    "price_range": 2,
    "average_cost_for_two": 40,
    "phone": "07 3606 3319",
    "address": "Gasworks Plaza, 76 Skyring Terrace, Newstead, Brisbane",
    "latitude": "-27.4507471792",
    "longitude": "153.0448810011",
    "base_city": "Brisbane"
  },
  {
    "z_id": "16593249",
    "name": "Sendok Garpu",
    "timings": "11 AM to 3 PM (Sat-Sun), Mon, Tue, Wed, Thu & Fri Closed",
    "price_range": 2,
    "average_cost_for_two": 35,
    "phone": "0425 249 837",
    "address": "Shop 40, 284 Musgrave Road, Coopers Plains, Brisbane",
    "latitude": "-27.5613520000",
    "longitude": "153.0367110000",
    "base_city": "Brisbane"
  },
  {
    "z_id": "16590866",
    "name": "Bellissimo Coffee Kiosk",
    "timings": "8 AM to 5 PM",
    "price_range": 1,
    "average_cost_for_two": 20,
    "phone": "0421 523 352",
    "address": "New Farm Park, 4 Binkenba Court, New Farm, Brisbane",
    "latitude": "-27.4686922216",
    "longitude": "153.0525484309",
    "base_city": "Brisbane"
  },
  {
    "z_id": "18511218",
    "name": "Gabba Fruit Market Coffee",
    "timings": "6 AM to 6 PM",
    "price_range": 1,
    "average_cost_for_two": 10,
    "phone": "07 3391 8200",
    "address": "86 Annerley Road, Woolloongabba, Brisbane",
    "latitude": "-27.4908762027",
    "longitude": "153.0275683478",
    "base_city": "Brisbane"
  },
  {
    "z_id": "18604722",
    "name": "Indietreats",
    "timings": "11 AM to 2 PM (Wed), 11:30 AM to 2 PM, 4 PM to 9:30 PM (Fri), 7 AM to 2 PM (Sun), Mon, Tue, Thu & Sat Closed",
    "price_range": 2,
    "average_cost_for_two": 30,
    "phone": "0468 346 133",
    "address": "Corner Fish Lane & Cordelia Street, South Brisbane, Brisbane",
    "latitude": "-27.4753483907",
    "longitude": "153.0156774446",
    "base_city": "Brisbane"
  },
  {
    "z_id": "18423961",
    "name": "Hope Street Cafe",
    "timings": "7:30 AM to 2:30 PM (Mon-Fri), Sat & Sun Closed",
    "price_range": 2,
    "average_cost_for_two": 30,
    "phone": "0409 905 258",
    "address": "170 Boundary Street, West End, Brisbane",
    "latitude": "-27.4825820863",
    "longitude": "153.0120366812",
    "base_city": "Brisbane"
  },
  {
    "z_id": "18561635",
    "name": "Hoy Pinoy",
    "timings": "",
    "price_range": 1,
    "average_cost_for_two": 25,
    "phone": "0439 374 669",
    "address": "Nomadic Location, Brisbane CBD, Brisbane",
    "latitude": "-27.4688135926",
    "longitude": "153.0278157815",
    "base_city": "Brisbane"
  },
  {
    "z_id": "18300673",
    "name": "J'adore Les Crepes",
    "timings": "",
    "price_range": 1,
    "average_cost_for_two": 20,
    "phone": "0415 283 026",
    "address": "Nomadic Location, Brisbane, QLD",
    "latitude": "-27.4688109153",
    "longitude": "153.0243332684",
    "base_city": "Brisbane"
  },
  {
    "z_id": "19159355",
    "name": "Jimmy Rod's Barbershop - Fonzie Abbott",
    "timings": "",
    "price_range": 1,
    "average_cost_for_two": 10,
    "phone": "Not available for this place",
    "address": "Broadway on the Mall, T.05, 133 Adelaide Street, Brisbane CBD, Brisbane",
    "latitude": "-27.4686633662",
    "longitude": "153.0255466327",
    "base_city": "Brisbane"
  },
  {
    "z_id": "18709860",
    "name": "Pie Town",
    "timings": "5 PM to 8 PM (Mon), 11:30 AM to 2:30 PM (Fri), 8 AM to 10 PM (Sat), Tue, Wed, Thu & Sun Closed",
    "price_range": 2,
    "average_cost_for_two": 30,
    "phone": "0412 995 857",
    "address": "Wandering Cooks, Corner Cordelia Street & Fish Lane, South Brisbane, Brisbane",
    "latitude": "-27.4753849783",
    "longitude": "153.0156368762",
    "base_city": "Brisbane"
  },
  {
    "z_id": "18445592",
    "name": "Karinderia by The Filipino Street Food",
    "timings": "4 PM to 10 PM (Fri-Sat), 12 Noon to 8 PM (Sun), Mon, Tue, Wed & Thu Closed",
    "price_range": 2,
    "average_cost_for_two": 30,
    "phone": "0423 463 444",
    "address": "Eat Street Markets, Nomadic Location, Hamilton, Brisbane",
    "latitude": "-27.4440258502",
    "longitude": "153.0806720629",
    "base_city": "Brisbane"
  },
  {
    "z_id": "19139427",
    "name": "Coffee Shed",
    "timings": "6:30 AM to 2 PM (Mon-Fri), 7 AM to 2 PM (Sat-Sun)",
    "price_range": 1,
    "average_cost_for_two": 20,
    "phone": "Not available for this place",
    "address": "Wandering Cooks, Corner of Cordelia Street and Fish Lane, South Brisbane, Brisbane",
    "latitude": "-27.4754849248",
    "longitude": "153.0157005787",
    "base_city": "Brisbane"
  },
  {
    "z_id": "19104302",
    "name": "Brissy Bubble Waffle",
    "timings": "4 PM to 9 PM (Sat), Mon, Tue, Wed, Thu, Fri & Sun Closed",
    "price_range": 1,
    "average_cost_for_two": 0,
    "phone": "Not available for this place",
    "address": "Mount Gravatt Marketta, 1644 Logan Road, Mount Gravatt, Brisbane",
    "latitude": "-27.5444540494",
    "longitude": "153.0830491707",
    "base_city": "Brisbane"
  },
  {
    "z_id": "18300644",
    "name": "Wild Rissole",
    "timings": "",
    "price_range": 1,
    "average_cost_for_two": 25,
    "phone": "0432 184 860",
    "address": "Nomadic Location, Brisbane, QLD",
    "latitude": "-27.4688118077",
    "longitude": "153.0243215337",
    "base_city": "Brisbane"
  },
  {
    "z_id": "18989244",
    "name": "Taiwanese Bao Shop",
    "timings": "8 AM to 6 PM",
    "price_range": 1,
    "average_cost_for_two": 20,
    "phone": "0452 210 938",
    "address": "Sunnybank Plaza, Shop 32C, Sunnybank, Brisbane",
    "latitude": "-27.5704909191",
    "longitude": "153.0627827346",
    "base_city": "Brisbane"
  },
  {
    "z_id": "18962836",
    "name": "New Farm Confectionery",
    "timings": "10 AM to 5 PM (Mon-Wed, Sun), 10 AM to 9 PM (Thu-Sat)",
    "price_range": 1,
    "average_cost_for_two": 15,
    "phone": "Not available for this place",
    "address": "Outdoor Dining Precinct, Corner of Gympie & Hamilton Road, Chermside, Brisbane",
    "latitude": "-27.3836402089",
    "longitude": "153.0323094875",
    "base_city": "Brisbane"
  },
  {
    "z_id": "18300669",
    "name": "WOW Banh Mi",
    "timings": "",
    "price_range": 1,
    "average_cost_for_two": 25,
    "phone": "0426 798 888",
    "address": "Nomadic Location, Brisbane, QLD",
    "latitude": "-27.4685134371",
    "longitude": "153.0245173350",
    "base_city": "Brisbane"
  },
  {
    "z_id": "18300657",
    "name": "Zagyoza",
    "timings": "",
    "price_range": 1,
    "average_cost_for_two": 25,
    "phone": "07 3944 6696",
    "address": "Nomadic Location, Brisbane, QLD",
    "latitude": "-27.4688225169",
    "longitude": "153.0243037641",
    "base_city": "Brisbane"
  },
  {
    "z_id": "16582429",
    "name": "Trailer Made",
    "timings": "",
    "price_range": 1,
    "average_cost_for_two": 20,
    "phone": "801714",
    "address": "Nomadic Location",
    "latitude": "-37.8736134912",
    "longitude": "144.9768529460",
    "base_city": "Melbourne"
  },
  {
    "z_id": "18621161",
    "name": "Phat Franks",
    "timings": "Closed (Mon-Tue),12noon â€“ 9:30pm (Wed-Sun)",
    "price_range": 2,
    "average_cost_for_two": 40,
    "phone": "03 9741 3000",
    "address": "Station Place, Werribee",
    "latitude": "-37.9008008050",
    "longitude": "144.6616347134",
    "base_city": "Melbourne"
  },
  {
    "z_id": "16582035",
    "name": "Ant's Dumplings",
    "timings": "Closed (Mon, Wed), 10 AM to 2:30 PM (Tue, Thu), 10 AM to 4 PM (Fri-Sun)",
    "price_range": 1,
    "average_cost_for_two": 20,
    "phone": "03 9942 1801",
    "address": "Queen Victoria Market, F Shed, 513 Elizabeth Street, CBD, Melbourne",
    "latitude": "-37.8072433971",
    "longitude": "144.9570438266",
    "base_city": "Melbourne"
  },
  {
    "z_id": "16581638",
    "name": "BeantoMelbourne",
    "timings": "(Sun, Sat), Breakfast, Lunch (Mon-Fri)",
    "price_range": 1,
    "average_cost_for_two": 20,
    "phone": "0419 396 336",
    "address": "Nomadic Location, Fitzroy, Melbourne",
    "latitude": "-37.8074934567",
    "longitude": "144.9770500884",
    "base_city": "Melbourne"
  },
  {
    "z_id": "18022016",
    "name": "Pierogi Pierogi",
    "timings": "",
    "price_range": 2,
    "average_cost_for_two": 30,
    "phone": "0431 905 559",
    "address": "Nomadic Location, Melbourne",
    "latitude": "-37.8734875149",
    "longitude": "144.9767567217",
    "base_city": "Melbourne"
  },
  {
    "z_id": "18524079",
    "name": "Shreeji - The Taste of Kutch",
    "timings": "6 PM to 10 PM (Tue-Thu, Sun), 6 PM to 11 PM (Fri-Sat), Mon Closed",
    "price_range": 2,
    "average_cost_for_two": 30,
    "phone": "0434 832 321",
    "address": "234 FunGalore, Ballarat Road, Braybrook, Melbourne",
    "latitude": "-37.7808483392",
    "longitude": "144.8632721230",
    "base_city": "Melbourne"
  },
  {
    "z_id": "18529109",
    "name": "Loaded Gourmet Hotdogs",
    "timings": "",
    "price_range": 2,
    "average_cost_for_two": 30,
    "phone": "0449 111 069",
    "address": "Nomadic Location",
    "latitude": "-37.7805337968",
    "longitude": "145.0125585124",
    "base_city": "Melbourne"
  },
  {
    "z_id": "16586624",
    "name": "Snag Society",
    "timings": "",
    "price_range": 1,
    "average_cost_for_two": 20,
    "phone": "0435 068 026",
    "address": "Nomadic Location",
    "latitude": "-37.8736201076",
    "longitude": "144.9767154828",
    "base_city": "Melbourne"
  },
  {
    "z_id": "18778970",
    "name": "Chaunka",
    "timings": "6 PM to 11 PM (Tue-Sun), Mon Closed",
    "price_range": 2,
    "average_cost_for_two": 30,
    "phone": "0430 159 817",
    "address": "363 Old Geelong Road, Hoppers Crossing, Melbourne",
    "latitude": "-37.8718892380",
    "longitude": "144.7267926112",
    "base_city": "Melbourne"
  },
  {
    "z_id": "17849576",
    "name": "O Tuga Tastes of Portugal",
    "timings": "12 Noon to 9 PM (Wed-Sun), Mon & Tue Closed",
    "price_range": 1,
    "average_cost_for_two": 25,
    "phone": "0438 356 010",
    "address": "Nomadic Location, Craigieburn, Melbourne",
    "latitude": "-37.5966513302",
    "longitude": "144.9216406792",
    "base_city": "Melbourne"
  },
  {
    "z_id": "18535169",
    "name": "Lukumades Food Truck",
    "timings": "",
    "price_range": 1,
    "average_cost_for_two": 20,
    "phone": "0423 969 923",
    "address": "Nomadic Location",
    "latitude": "-37.8007139979",
    "longitude": "144.9167322367",
    "base_city": "Melbourne"
  },
  {
    "z_id": "18866426",
    "name": "Miksa Food Truck",
    "timings": "6 PM to 12 Midnight (Wed-Sun), Mon & Tue Closed",
    "price_range": 1,
    "average_cost_for_two": 0,
    "phone": "Not available for this place",
    "address": "800 Cooper Street, Somerton, Melbourne, VIC",
    "latitude": "-37.6451438595",
    "longitude": "144.9681827053",
    "base_city": "Melbourne"
  },
  {
    "z_id": "16584583",
    "name": "Pizza Wagon",
    "timings": "",
    "price_range": 2,
    "average_cost_for_two": 40,
    "phone": "03 5902 2555",
    "address": "Nomadic Location, Collins Street, CBD, Melbourne, VIC",
    "latitude": "-37.8735385935",
    "longitude": "144.9767567217",
    "base_city": "Melbourne"
  },
  {
    "z_id": "18199288",
    "name": "Original Chai Co",
    "timings": "9 AM to 3 PM (Sun), Mon, Tue, Wed, Thu, Fri & Sat Closed",
    "price_range": 1,
    "average_cost_for_two": 15,
    "phone": "0421 985 998",
    "address": "Shed 1, Queen Victoria Market, Corner of Victoria Street and Elizabeth Street, CBD, Melbourne",
    "latitude": "-37.8072153183",
    "longitude": "144.9580359086",
    "base_city": "Melbourne"
  },
  {
    "z_id": "18538565",
    "name": "Two Fat Indians Food Truck",
    "timings": "5 PM to 10 PM (Tue-Fri), Mon, Sat & Sun Closed",
    "price_range": 2,
    "average_cost_for_two": 35,
    "phone": "0448 861 699",
    "address": "Nomadic Location",
    "latitude": "-37.8226178410",
    "longitude": "144.9695093930",
    "base_city": "Melbourne"
  },
  {
    "z_id": "18560512",
    "name": "TCT Grills",
    "timings": "6 PM to 6 AM (Tue-Sat), Mon & Sun Closed",
    "price_range": 2,
    "average_cost_for_two": 40,
    "phone": "0404 886 351",
    "address": "K P Hardiman Reserve, 867 Plenty Road, Kingsbury, Melbourne",
    "latitude": "-37.7212842983",
    "longitude": "145.0329047442",
    "base_city": "Melbourne"
  },
  {
    "z_id": "18139992",
    "name": "King of Falafel",
    "timings": "7 AM to 4 PM (Tue, Sat), 7 AM to 5 PM (Fri), 10 AM to 3 PM (Sun), Mon, Wed & Thu Closed",
    "price_range": 2,
    "average_cost_for_two": 30,
    "phone": "0422 354 979",
    "address": "Dandenong Market, L6 Market Square, 16 Cleeland Street, Dandenong, Melbourne",
    "latitude": "-37.9842487856",
    "longitude": "145.2155450732",
    "base_city": "Melbourne"
  },
  {
    "z_id": "18640416",
    "name": "Tex Oz Smokehouse",
    "timings": "12 Noon to 9 PM (Mon-Sat), 12 Noon to 8 PM (Sun)",
    "price_range": 2,
    "average_cost_for_two": 40,
    "phone": "Not available for this place",
    "address": "12 Synnot Street Werribee, Melbourne",
    "latitude": "-37.9013809788",
    "longitude": "144.6634281054",
    "base_city": "Melbourne"
  },
  {
    "z_id": "18647722",
    "name": "Mary Jane Gourmet Burgers",
    "timings": "5 PM to 10 PM (Wed-Sun), Mon & Tue Closed",
    "price_range": 2,
    "average_cost_for_two": 40,
    "phone": "0498 758 380",
    "address": "555 Macaulay Road, Kensington, Melbourne",
    "latitude": "-37.7942627089",
    "longitude": "144.9277876318",
    "base_city": "Melbourne"
  },
  {
    "z_id": "18886728",
    "name": "Sparrows Philly Cheese Steaks Food Truck",
    "timings": "",
    "price_range": 3,
    "average_cost_for_two": 60,
    "phone": "(03) 9417 6420",
    "address": "Nomadic Location",
    "latitude": "-37.8136110000",
    "longitude": "144.9630560000",
    "base_city": "Melbourne"
  },
  {
    "z_id": "16606332",
    "name": "The Sambal",
    "timings": "11 AM to 10 PM (Mon, Tue, Wed, Thu, Sun), 11 AM to 11 PM (Fri-Sat)",
    "price_range": 2,
    "average_cost_for_two": 20,
    "phone": "(03) 5021 4209",
    "address": "150 Deakin Ave, Mildura",
    "latitude": "-34.1896232000",
    "longitude": "142.1583715000",
    "base_city": "Mildura"
  },
  {
    "z_id": "16609165",
    "name": "Margaret River Burger Bar",
    "timings": "Closed (Mon-Thu),4 PM to 7:30 PM (Fri),9 AM to 7:30 PM (Sat),9 AM to 3 PM (Sun)",
    "price_range": 1,
    "average_cost_for_two": 7,
    "phone": "0439 574 599",
    "address": "1654 Osmington Rd, Margaret River",
    "latitude": "-33.9117870000",
    "longitude": "115.2508480000",
    "base_city": "Margarent River"
  },
  {
    "z_id": "16609204",
    "name": "Spice Journey",
    "timings": "Closed (Mon, Tue, Sat, Sun), 11:30 AM to 2 PM, 5 PM to 7:30 PM (Wed-Fri)",
    "price_range": 1,
    "average_cost_for_two": 7,
    "phone": "0413 657 819",
    "address": "Mobile Food Truck, Bunbury",
    "latitude": "-33.3270685000",
    "longitude": "115.6391736000",
    "base_city": "Bunbury"
  },
  {
    "z_id": "16608752",
    "name": "Eagle Boys Pizza",
    "timings": "Dinner, Late (Sun, Mon, Tue, Wed, Thu, Fri, Sat)",
    "price_range": 1,
    "average_cost_for_two": 7,
    "phone": "1300 324 532",
    "address": "Shop 11, Sandridge Village Shopping Centre, Sandridge Rd, Bunbury",
    "latitude": "-33.3405110000",
    "longitude": "115.6530530000",
    "base_city": "Bunbury"
  },
  {
    "z_id": "17842139",
    "name": "Denning Road Lunch",
    "timings": "",
    "price_range": 1,
    "average_cost_for_two": 7,
    "phone": "(08) 9721 4516",
    "address": "32 Denning Rd, East Bunbury",
    "latitude": "-33.3400760000",
    "longitude": "115.6522550000",
    "base_city": "East Bunbury"
  },
  {
    "z_id": "18416564",
    "name": "Ma La Margaret River Dumplings",
    "timings": "Closed (Mon-Wed),8 AM to 3 PM (Thu-Sat),1 PM to 7:30 PM (Sun)",
    "price_range": 4,
    "average_cost_for_two": 50,
    "phone": "Not available for this place",
    "address": "Lot 272 Bussell Highway, Margaret River",
    "latitude": "-33.9600000000",
    "longitude": "115.1000000000",
    "base_city": "Margaret River"
  },
  {
    "z_id": "16608745",
    "name": "Pronto Cino",
    "timings": "7 AM to 12:30 PM (Mon, Tue, Wed, Thu, Sun), 7 AM to 12 Midnight (Fri),7 AM to 12:30 PM, 12 Midnight to 12:30 AM (Sat)",
    "price_range": 1,
    "average_cost_for_two": 7,
    "phone": "0408 081 818",
    "address": "Nomadic Location, Yallingup",
    "latitude": "-33.6463583000",
    "longitude": "115.0339741000",
    "base_city": "Yallingup"
  },
  {
    "z_id": "16609284",
    "name": "Spice Odysee",
    "timings": "(Sun, Mon, Wed, Fri), Dinner (Tue, Thu, Sat)",
    "price_range": 1,
    "average_cost_for_two": 7,
    "phone": "0448 392 509",
    "address": "Old Dunsborough Boat Ramp, Dunsborough",
    "latitude": "-33.6154902000",
    "longitude": "115.1080017000",
    "base_city": "Dunsborough"
  },
  {
    "z_id": "16609591",
    "name": "Mezcal Food Truck & Catering",
    "timings": "6 PM to 8 PM (Mon, Wed, Fri), Closed (Tue, Thu, Sat, Sun)",
    "price_range": 1,
    "average_cost_for_two": 0,
    "phone": "Not available for this place",
    "address": "Finlayson St, Dunsborough",
    "latitude": "-33.6014585000",
    "longitude": "115.1042881000",
    "base_city": "Dunsborough"
  },
  {
    "z_id": "16612657",
    "name": "Fork n Knife My Little Deli",
    "timings": "(Sun, Mon), Lunch (Tue, Wed, Thu, Sat), Lunch, Dinner, Late (Fri)",
    "price_range": 2,
    "average_cost_for_two": 20,
    "phone": "0477 413 551",
    "address": "10 Curringa Rd, Gosford",
    "latitude": "-33.4343404000",
    "longitude": "151.2952873000",
    "base_city": "Somersby"
  },
  {
    "z_id": "16610504",
    "name": "Short Black Espresso Bar and Cafe",
    "timings": "(Sun, Sat), Breakfast, Lunch (Mon-Fri)",
    "price_range": 1,
    "average_cost_for_two": 7,
    "phone": "(02) 4344 1848",
    "address": "11b/26 Railway St, Woy Woy",
    "latitude": "-33.4856667000",
    "longitude": "151.3238866000",
    "base_city": "Woy Woy"
  },
  {
    "z_id": "18398486",
    "name": "G-dup burgers",
    "timings": "4 PM to 10 PM",
    "price_range": 2,
    "average_cost_for_two": 40,
    "phone": "0411 044 376",
    "address": "Nomadic Location, Blacktown, Sydney",
    "latitude": "-33.7844866184",
    "longitude": "150.9077025577",
    "base_city": "Sydney"
  },
  {
    "z_id": "15547361",
    "name": "Sakura On Wheelz",
    "timings": "24 Hours",
    "price_range": 2,
    "average_cost_for_two": 30,
    "phone": "0423 700 331",
    "address": "317, Haberfield, Sydney",
    "latitude": "-33.8748900000",
    "longitude": "151.1283670000",
    "base_city": "Sydney"
  },
  {
    "z_id": "18708202",
    "name": "Tasty Rollz",
    "timings": "12 Noon to 2:30 PM, 6 PM to 9 PM (Mon-Wed), 12 Noon to 2:30 PM, 6 PM to 10 PM (Thu-Sun)",
    "price_range": 1,
    "average_cost_for_two": 25,
    "phone": "0405 450 067",
    "address": "Location varies, Carnes Hill, Prestons",
    "latitude": "-33.9370370000",
    "longitude": "150.8430860000",
    "base_city": "Sydney"
  },
  {
    "z_id": "18407109",
    "name": "The Original Soup Man Australia",
    "timings": "6 PM to 11 PM (Fri-Sat), Mon, Tue, Wed, Thu & Sun Closed",
    "price_range": 1,
    "average_cost_for_two": 25,
    "phone": "02 9756 4088",
    "address": "Locations Vary, Concord, Sydney",
    "latitude": "-33.8480280947",
    "longitude": "151.1078764871",
    "base_city": "Sydney"
  },
  {
    "z_id": "16566038",
    "name": "Al CarbÃ³n",
    "timings": "9 AM to 5 PM",
    "price_range": 1,
    "average_cost_for_two": 25,
    "phone": "0416 061 974",
    "address": "Nomadic Location, CBD, Sydney",
    "latitude": "-33.8675648940",
    "longitude": "151.2075758725",
    "base_city": "Sydney"
  },
  {
    "z_id": "15547240",
    "name": "Berlin Bangers",
    "timings": "9 AM to 5 PM",
    "price_range": 1,
    "average_cost_for_two": 0,
    "phone": "0401 558 828",
    "address": "Nomadic Location, Bondi, Sydney",
    "latitude": "-33.8935647039",
    "longitude": "151.2619915232",
    "base_city": "Sydney"
  },
  {
    "z_id": "15545125",
    "name": "Caminito",
    "timings": "9 AM to 5 PM",
    "price_range": 1,
    "average_cost_for_two": 25,
    "phone": "0434 146 016",
    "address": "Nomadic Location, CBD, Sydney",
    "latitude": "-33.8661208774",
    "longitude": "151.2086708844",
    "base_city": "Sydney"
  },
  {
    "z_id": "17743325",
    "name": "Jarrod's Shakes 'n' Snags",
    "timings": "9 AM to 5 PM",
    "price_range": 2,
    "average_cost_for_two": 30,
    "phone": "0435 813 851",
    "address": "Location varies, Parramatta, Sydney",
    "latitude": "-33.8127347115",
    "longitude": "150.9624186158",
    "base_city": "Sydney"
  },
  {
    "z_id": "17742752",
    "name": "Happy as Larry",
    "timings": "7 AM to 4 PM, 5 PM to 8:30 PM (Mon-Fri), Sat & Sun Closed",
    "price_range": 2,
    "average_cost_for_two": 50,
    "phone": "02 9274 8744",
    "address": "Location varies, CBD, Sydney",
    "latitude": "-33.8644399189",
    "longitude": "151.2067581341",
    "base_city": "Sydney"
  },
  {
    "z_id": "18413632",
    "name": "OG Dogs Food Truck",
    "timings": "9 AM to 5 PM",
    "price_range": 1,
    "average_cost_for_two": 0,
    "phone": "0423 394 531",
    "address": "Nomadic Location, CBD, Sydney",
    "latitude": "-33.8700208074",
    "longitude": "151.2094842643",
    "base_city": "Sydney"
  },
  {
    "z_id": "18474981",
    "name": "The Good Crook",
    "timings": "9 AM to 5 PM",
    "price_range": 1,
    "average_cost_for_two": 0,
    "phone": "04 0338 6284",
    "address": "Nomadic Location, Sydney",
    "latitude": "-33.6931130000",
    "longitude": "150.9245640000",
    "base_city": "Sydney"
  },
  {
    "z_id": "17744589",
    "name": "Loukoumadness by Parea",
    "timings": "6 PM to 9 PM (Thu), 6 PM to 10 PM (Fri), 5 PM to 10 PM (Sat), 4 PM to 9 PM (Sun), Mon, Tue & Wed Closed",
    "price_range": 1,
    "average_cost_for_two": 0,
    "phone": "02 9588 7887",
    "address": "29-31 Rocky Point Rd, Kogarah, Monterey, Sydney",
    "latitude": "-33.9719180823",
    "longitude": "151.1360923201",
    "base_city": "Sydney"
  },
  {
    "z_id": "15545148",
    "name": "New York Pastrami Deli",
    "timings": "24 Hours",
    "price_range": 2,
    "average_cost_for_two": 30,
    "phone": "0481 318 562",
    "address": "Nomadic Location, CBD, Sydney",
    "latitude": "-33.8665532219",
    "longitude": "151.2086065114",
    "base_city": "Sydney"
  },
  {
    "z_id": "17748099",
    "name": "The Fish & Chip Van",
    "timings": "9 AM to 5 PM (Wed-Sun), Mon & Tue Closed",
    "price_range": 2,
    "average_cost_for_two": 35,
    "phone": "Not available for this place",
    "address": "Stall 585, Paddy's Market, 9-13 Hay Street, Chinatown, Haymarket, Sydney",
    "latitude": "-33.8796714565",
    "longitude": "151.2041966245",
    "base_city": "Sydney"
  },
  {
    "z_id": "15547233",
    "name": "You Pizza",
    "timings": "9 AM to 5 PM",
    "price_range": 2,
    "average_cost_for_two": 50,
    "phone": "0424 171 682",
    "address": "Location varies., Parramatta, Sydney",
    "latitude": "-33.8126277414",
    "longitude": "150.9623914585",
    "base_city": "Sydney"
  },
  {
    "z_id": "15548214",
    "name": "Shiso Fine",
    "timings": "9 AM to 5 PM",
    "price_range": 2,
    "average_cost_for_two": 50,
    "phone": "0408 445 415",
    "address": "Location varies",
    "latitude": "-33.8924397905",
    "longitude": "151.2003164738",
    "base_city": "Sydney"
  },
  {
    "z_id": "18527611",
    "name": "Trang's Kitchen",
    "timings": "9 AM to 5 PM",
    "price_range": 1,
    "average_cost_for_two": 15,
    "phone": "0412 442 009",
    "address": "Location varies",
    "latitude": "-33.8125781562",
    "longitude": "150.9623220563",
    "base_city": "Sydney"
  },
  {
    "z_id": "17747209",
    "name": "Mr. Pig Food Truck",
    "timings": "9:50 AM a 10:10 AM (Seg),10 AM a 8 PM (Ter-Dom)",
    "price_range": 1,
    "average_cost_for_two": 0,
    "phone": "0414 858 168",
    "address": "Nomadic Location",
    "latitude": "-34.0544440000",
    "longitude": "150.6958330000",
    "base_city": "Sydney"
  },
  {
    "z_id": "18373106",
    "name": "Fritz's Wieners",
    "timings": "12 Noon to 12 Midnight",
    "price_range": 2,
    "average_cost_for_two": 30,
    "phone": "0437 987 551",
    "address": "Various locations, CBD, Sydney",
    "latitude": "-33.8691942899",
    "longitude": "151.1992194504",
    "base_city": "Sydney"
  },
  {
    "z_id": "15545140",
    "name": "Street Sliders",
    "timings": "9 AM to 5 PM",
    "price_range": 2,
    "average_cost_for_two": 35,
    "phone": "0450 037 750",
    "address": "Nomadic Location, CBD, Sydney",
    "latitude": "-33.8663987140",
    "longitude": "151.2086551264",
    "base_city": "Sydney"
  },
  {
    "z_id": "16588455",
    "name": "Veggie Velo",
    "timings": "Closed (Mon, Tue, Wed, Sat), 11 AM to 2 PM (Thu-Fri),9 AM to 3 PM (Sun)",
    "price_range": 2,
    "average_cost_for_two": 30,
    "phone": "0479 010 539",
    "address": "Nomadic Location, Adelaide",
    "latitude": "-34.9287264000",
    "longitude": "138.5999453000",
    "base_city": "Adelaide"
  },
  {
    "z_id": "16588526",
    "name": "Chimichurri Grill",
    "timings": "",
    "price_range": 2,
    "average_cost_for_two": 30,
    "phone": "0434 993 061",
    "address": "Nomadic Location, Adelaide",
    "latitude": "-34.9286212000",
    "longitude": "138.5999594000",
    "base_city": "Adelaide"
  },
  {
    "z_id": "16588890",
    "name": "Tammy's Meat Rolls",
    "timings": "Closed (Mon, Wed, Thu, Fri, Sun), 8 AM to 1 PM (Tue, Sat)",
    "price_range": 1,
    "average_cost_for_two": 0,
    "phone": "0430 303 550",
    "address": "Farmer's Direct Market, Old Spot Hotel, 1955 Main North Road, Salisbury Heights Heights",
    "latitude": "-34.7548996000",
    "longitude": "138.6792425000",
    "base_city": "Adelaide"
  },
  {
    "z_id": "18286356",
    "name": "Shake Street",
    "timings": "",
    "price_range": 1,
    "average_cost_for_two": 15,
    "phone": "0402 099 281",
    "address": "Out and about the streets of the Adelaide CBD. Check out facebook or the 'street eats' app to find us.",
    "latitude": "-34.8294634146",
    "longitude": "138.6900363922",
    "base_city": "Adelaide"
  },
  {
    "z_id": "16589674",
    "name": "The Lunch Lady",
    "timings": "Closed (Mon, Tue, Wed, Thu, Sat), 10:30 AM to 1 PM (Fri),9 AM to 4 PM (Sun)",
    "price_range": 2,
    "average_cost_for_two": 30,
    "phone": "0423 677 409",
    "address": "Nomadic Location, Adelaide",
    "latitude": "-34.9324730000",
    "longitude": "138.6086002000",
    "base_city": "Adelaide"
  },
  {
    "z_id": "16588986",
    "name": "ChurrOZ",
    "timings": "",
    "price_range": 1,
    "average_cost_for_two": 0,
    "phone": "0434 922 300",
    "address": "Nomadic Location, Adelaide",
    "latitude": "-34.9286212000",
    "longitude": "138.5999594000",
    "base_city": "Adelaide"
  },
  {
    "z_id": "17841273",
    "name": "The Travelling Greek",
    "timings": "Closed (Mon-Sat),9 AM to 3 PM (Sun)",
    "price_range": 2,
    "average_cost_for_two": 30,
    "phone": "0418 826 429",
    "address": "The Market Shed, 1 Holland Street, Adelaide",
    "latitude": "-34.9346932000",
    "longitude": "138.6002491000",
    "base_city": "Adelaide"
  },
  {
    "z_id": "16589638",
    "name": "Cheesy Street",
    "timings": "",
    "price_range": 2,
    "average_cost_for_two": 26,
    "phone": "Not available for this place",
    "address": "Nomadic Location, Adelaide",
    "latitude": "-34.9286212000",
    "longitude": "138.5999594000",
    "base_city": "Adelaide"
  },
  {
    "z_id": "17841339",
    "name": "Francesco's Cicchetti",
    "timings": "Closed (Mon-Sat),9 AM to 3 PM (Sun)",
    "price_range": 2,
    "average_cost_for_two": 40,
    "phone": "Not available for this place",
    "address": "The Market Shed, 1 Holland Street,  Adelaide",
    "latitude": "-34.9346932000",
    "longitude": "138.6002491000",
    "base_city": "Adelaide"
  },
  {
    "z_id": "16588362",
    "name": "Sausage King",
    "timings": "",
    "price_range": 1,
    "average_cost_for_two": 0,
    "phone": "0422 908 319",
    "address": "Various Locations, Adelaide",
    "latitude": "-34.9287264000",
    "longitude": "138.5999453000",
    "base_city": "Adelaide"
  },
  {
    "z_id": "16588692",
    "name": "Archie the Pastizzi Bus",
    "timings": "",
    "price_range": 1,
    "average_cost_for_two": 0,
    "phone": "00 4343 2020",
    "address": "Nomadic Location, Adelaide",
    "latitude": "-34.9286212000",
    "longitude": "138.5999594000",
    "base_city": "Adelaide"
  },
  {
    "z_id": "17841334",
    "name": "Walnut Bar",
    "timings": "Closed (Mon-Sat),9 AM to 3 PM (Sun)",
    "price_range": 1,
    "average_cost_for_two": 0,
    "phone": "0451 011 910",
    "address": "Nomadic Location, Adelaide",
    "latitude": "-34.9346932000",
    "longitude": "138.6002491000",
    "base_city": "Adelaide"
  },
  {
    "z_id": "16608484",
    "name": "Neon Lobster Pop Up Taqueria",
    "timings": "11 AM to 4 PM (Mon-Thu),10 AM to 5 PM (Fri-Sun)",
    "price_range": 1,
    "average_cost_for_two": 7,
    "phone": "(08) 8323 7750",
    "address": "Olivers Road, Adelaide",
    "latitude": "-35.2037086000",
    "longitude": "138.5424852000",
    "base_city": "Adelaide"
  },
  {
    "z_id": "18690158",
    "name": "Old School Bus",
    "timings": "Closed (Mon),8AM to 2:30PM (Tue-Sun)",
    "price_range": 1,
    "average_cost_for_two": 0,
    "phone": "0403 510 599",
    "address": "location varies, Adelaide",
    "latitude": "-34.9281946945",
    "longitude": "138.5999141693",
    "base_city": "Adelaide"
  },
  {
    "z_id": "19109366",
    "name": "De Groot Coffee Co. @ Summertown Studio",
    "timings": "8 AM to 2:30 PM",
    "price_range": 1,
    "average_cost_for_two": 15,
    "phone": "0404 442 722",
    "address": "13 Paringa Avenue, Somerton Park, Adelaide, SA",
    "latitude": "-34.9993402711",
    "longitude": "138.5236072540",
    "base_city": "Adelaide"
  },
  {
    "z_id": "18216646",
    "name": "What the Bao!",
    "timings": "9 AM to 8 PM (Fri), 9 AM to 6 PM (Sat-Sun), Mon, Tue, Wed & Thu Closed",
    "price_range": 2,
    "average_cost_for_two": 30,
    "phone": "0404 226 655",
    "address": "Fremantle Markets, Henderson Street, Fremantle, Perth",
    "latitude": "-32.0562645000",
    "longitude": "115.7466577000",
    "base_city": "Perth"
  },
  {
    "z_id": "16599601",
    "name": "Levi's Doughnuts",
    "timings": "9 AM to 8 PM (Fri), 9 AM to 6 PM (Sat-Sun), Mon, Tue, Wed & Thu Closed",
    "price_range": 1,
    "average_cost_for_two": 10,
    "phone": "0427 444 150",
    "address": "Fremantle Markets, Shop Y7, Corner Henderson Street and South Terrace, Fremantle, Perth",
    "latitude": "-32.0545229000",
    "longitude": "115.7464589000",
    "base_city": "Perth"
  },
  {
    "z_id": "16598690",
    "name": "Black Cherries Espresso",
    "timings": "9 AM to 8 PM (Fri), 9 AM to 6 PM (Sat-Sun), Mon, Tue, Wed & Thu Closed",
    "price_range": 1,
    "average_cost_for_two": 15,
    "phone": "0413 735 196",
    "address": "Fremantle Markets The Yard, Corner South Terrace and Henderson Street, Fremantle, Perth",
    "latitude": "-32.0552438000",
    "longitude": "115.7494202000",
    "base_city": "Perth"
  },
  {
    "z_id": "16597099",
    "name": "Michele's Crepe Suzette",
    "timings": "9 AM to 8 PM (Fri), 9 AM to 6 PM (Sat-Sun), Mon, Tue, Wed & Thu Closed",
    "price_range": 2,
    "average_cost_for_two": 40,
    "phone": "0403 160 040",
    "address": "Fremantle Markets, Shop 4, Corner Henderson Street and South Terrace, Fremantle, Perth",
    "latitude": "-32.0565724165",
    "longitude": "115.7487773895",
    "base_city": "Perth"
  },
  {
    "z_id": "16601228",
    "name": "The Honeycake",
    "timings": "9 AM to 8 PM (Fri), 9 AM to 6 PM (Sat-Sun), Mon, Tue, Wed & Thu Closed",
    "price_range": 2,
    "average_cost_for_two": 30,
    "phone": "0432 175 884",
    "address": "Fremantle Markets, Shop 40, 74 Corner Henderson Street and South Terrace, Fremantle, Perth",
    "latitude": "-32.0560399000",
    "longitude": "115.7471797000",
    "base_city": "Perth"
  },
  {
    "z_id": "16600716",
    "name": "Singapore Chicken Rice",
    "timings": "Lunch (Sun, Fri, Sat),  (Mon-Thu)",
    "price_range": 1,
    "average_cost_for_two": 25,
    "phone": "Not available for this place",
    "address": "Coventry Village, 243-253 Walter Rd West, Morley, Perth",
    "latitude": "-31.8948276000",
    "longitude": "115.8951411000",
    "base_city": "Perth"
  },
  {
    "z_id": "16599603",
    "name": "Eat Street",
    "timings": "Closed (Mon-Thu),9 AM to 8 PM (Fri),9 AM to 6 PM (Sat-Sun)",
    "price_range": 1,
    "average_cost_for_two": 0,
    "phone": "(08) 9431 7280",
    "address": "Fremantle Markets, Shop Y9, Corner South Terrace And Henderson Street, Fremantle, Perth",
    "latitude": "-32.0545229000",
    "longitude": "115.7464589000",
    "base_city": "Perth"
  },
  {
    "z_id": "16600866",
    "name": "Karanaki's Raw Food Kitchen",
    "timings": "Closed (Mon-Thu),8 AM to 8 PM (Fri),8 AM to 6 PM (Sat-Sun)",
    "price_range": 2,
    "average_cost_for_two": 40,
    "phone": "0406 739 318",
    "address": "Fremantle Markets, Y126a, Corner Henderson Street and South Terrace, Fremantle, Perth",
    "latitude": "-32.0564167000",
    "longitude": "115.7492000000",
    "base_city": "Perth"
  },
  {
    "z_id": "17841603",
    "name": "Wassup Dog",
    "timings": "6:30 AM to 3 PM (Mon-Wed), 6:30 AM to 9 PM (Thu-Fri), 7 AM to 9 PM (Sat-Sun)",
    "price_range": 2,
    "average_cost_for_two": 45,
    "phone": "08 9221 5436",
    "address": "32 Market Street, Fremantle, Perth",
    "latitude": "-32.0562906000",
    "longitude": "115.7486931000",
    "base_city": "Perth"
  },
  {
    "z_id": "16597557",
    "name": "La Latina Providores",
    "timings": "Breakfast, Lunch, Dinner, Late (Sun, Mon, Tue, Wed, Thu, Fri, Sat)",
    "price_range": 3,
    "average_cost_for_two": 60,
    "phone": "0413 370 907",
    "address": "Nomadic Location",
    "latitude": "-31.9528536000",
    "longitude": "115.8573389000",
    "base_city": "Perth"
  },
  {
    "z_id": "16601092",
    "name": "La Paleta",
    "timings": "",
    "price_range": 1,
    "average_cost_for_two": 0,
    "phone": "0402 801 515",
    "address": "2/6 Geelong Court, Bibra Lake, Perth",
    "latitude": "-32.0560399000",
    "longitude": "115.7471797000",
    "base_city": "Perth"
  },
  {
    "z_id": "16599551",
    "name": "DNK Cupcakes",
    "timings": "Closed (Mon-Thu),8 AM to 8 PM (Fri),8 AM to 6 PM (Sat-Sun)",
    "price_range": 1,
    "average_cost_for_two": 15,
    "phone": "0402 314 823",
    "address": "Fremantle Markets, Shop Y3B, Corner of South Terrace And Henderson Street, Fremantle, Perth",
    "latitude": "-32.0552438000",
    "longitude": "115.7494202000",
    "base_city": "Perth"
  },
  {
    "z_id": "16601416",
    "name": "Sweet Dream Foods",
    "timings": "",
    "price_range": 2,
    "average_cost_for_two": 30,
    "phone": "0419 653 296",
    "address": "Nomadic Location, Fremantle, Perth",
    "latitude": "-32.0552438000",
    "longitude": "115.7494202000",
    "base_city": "Perth"
  },
  {
    "z_id": "19182820",
    "name": "Egg Spot",
    "timings": "9 AM to 8 PM (Fri), 9 AM to 6 PM (Sat-Sun), Mon, Tue, Wed & Thu Closed",
    "price_range": 2,
    "average_cost_for_two": 40,
    "phone": "Not available for this place",
    "address": "Fremantle Market, South Terrace & Henderson Street, Fremantle, Perth",
    "latitude": "-32.0559435799",
    "longitude": "115.7496289909",
    "base_city": "Perth"
  },
  {
    "z_id": "16599651",
    "name": "The Bratwurst Bar",
    "timings": "9 AM to 8 PM (Fri), 9 AM to 6 PM (Sat-Sun), Mon, Tue, Wed & Thu Closed",
    "price_range": 1,
    "average_cost_for_two": 20,
    "phone": "0403 057 919",
    "address": "Fremantle Markets, Shop Y4, Corner Henderson Street and South Terrace, Fremantle, Perth",
    "latitude": "-32.0562906000",
    "longitude": "115.7486931000",
    "base_city": "Perth"
  },
  {
    "z_id": "16601036",
    "name": "Kazz's Caribbean Kitchen",
    "timings": "Breakfast, Lunch, Dinner (Sun, Fri, Sat),  (Mon-Wed),Dinner (Thu)",
    "price_range": 1,
    "average_cost_for_two": 0,
    "phone": "0405 362 277",
    "address": "Nomadic Location, Perth CBD, Perth",
    "latitude": "-31.9530044000",
    "longitude": "115.8574693000",
    "base_city": "Perth"
  },
  {
    "z_id": "18156167",
    "name": "Olivia's Kitchen",
    "timings": "9 AM to 8 PM (Fri), 9 AM to 6 PM (Sat-Sun), Mon, Tue, Wed & Thu Closed",
    "price_range": 2,
    "average_cost_for_two": 30,
    "phone": "0410 547 092",
    "address": "Fremantle Markets, Shop Y6, Corner Henderson Street and South Terrace, Fremantle, Perth",
    "latitude": "-32.0560075151",
    "longitude": "115.7495780289",
    "base_city": "Perth"
  },
  {
    "z_id": "18361516",
    "name": "collabo",
    "timings": "9 AM to 8 PM (Fri), 9 AM to 6 PM (Sat-Sun), Mon, Tue, Wed & Thu Closed",
    "price_range": 2,
    "average_cost_for_two": 35,
    "phone": "0403 644 653",
    "address": "Fremantle Markets, Shop 8, South Terrace & Henderson Street, Fremantle, Perth",
    "latitude": "-32.0563070156",
    "longitude": "115.7491706684",
    "base_city": "Perth"
  },
  {
    "z_id": "18564027",
    "name": "Long Chim Tuck Shop",
    "timings": "11 AM to 2 PM (Mon-Fri), Sat & Sun Closed",
    "price_range": 2,
    "average_cost_for_two": 40,
    "phone": "(08) 6168 7774",
    "address": "Lower Ground Level, Corner St George's Terrace and Barrack Street, Perth CBD, Perth",
    "latitude": "-31.9557548470",
    "longitude": "115.8600582182",
    "base_city": "Perth"
  },
  {
    "z_id": "16600739",
    "name": "Pedaling Beans",
    "timings": "Closed (Mon-Fri),8:30 AM to 2 PM (Sat-Sun)",
    "price_range": 1,
    "average_cost_for_two": 0,
    "phone": "0418 898 321",
    "address": "Sir James Mitchel Park, Coode Street, South Perth, Perth",
    "latitude": "-31.9751679791",
    "longitude": "115.8610486239",
    "base_city": "Perth"
  },
  {
    "z_id": "16570056",
    "name": "Mister Gee Burger Truck",
    "timings": "6 PM to 4 AM",
    "price_range": 2,
    "average_cost_for_two": 30,
    "phone": "0411 092 663",
    "address": "Nomadic Location",
    "latitude": "-33.8751918583",
    "longitude": "151.1290444806",
    "base_city": "Sydney"
  },
  {
    "z_id": "18276108",
    "name": "Holy Heffa Burger Truck",
    "timings": "6 PM to 10 PM (Thu-Sun), Mon, Tue & Wed Closed",
    "price_range": 1,
    "average_cost_for_two": 25,
    "phone": "Not available for this place",
    "address": "661-671 Smithfield Road, Edensor Park, Smithfield, Sydney",
    "latitude": "-33.8822828928",
    "longitude": "150.8894279972",
    "base_city": "Sydney"
  },
  {
    "z_id": "16566675",
    "name": "Eat Art Truck",
    "timings": "9:30 AM to 5:30 PM (Mon-Fri), Sat & Sun Closed",
    "price_range": 2,
    "average_cost_for_two": 30,
    "phone": "0439 841 008",
    "address": "Nomadic Location, CBD, Sydney",
    "latitude": "-33.8664502166",
    "longitude": "151.2086400390",
    "base_city": "Sydney"
  },
  {
    "z_id": "16560286",
    "name": "Harry's Cafe de Wheels",
    "timings": "8:30 AM to 10 PM (Mon-Tue), 8:30 AM to 12 Midnight (Wed-Thu), 8:30 AM to 2 AM (Fri), 9:30 AM to 10 PM (Sat-Sun)",
    "price_range": 2,
    "average_cost_for_two": 30,
    "phone": "02 9281 6292",
    "address": "Shop GK 02, Capitol Square, 730-742 George Street, Chinatown, Haymarket, Sydney",
    "latitude": "-33.8798011674",
    "longitude": "151.2059652060",
    "base_city": "Sydney"
  },
  {
    "z_id": "16568959",
    "name": "Nighthawk Diner",
    "timings": "11 AM to 10 PM (Mon-Sat), 11 AM to 4 PM (Sun)",
    "price_range": 3,
    "average_cost_for_two": 70,
    "phone": "02 9281 8369",
    "address": "69 Abercrombie Street, Chippendale, Sydney",
    "latitude": "-33.8867610055",
    "longitude": "151.1986370757",
    "base_city": "Sydney"
  },
  {
    "z_id": "17744304",
    "name": "Chubby Buns Burgers",
    "timings": "6 PM to 2 AM",
    "price_range": 1,
    "average_cost_for_two": 25,
    "phone": "0406 609 656",
    "address": "78 Parramatta Road, Lidcombe, Sydney",
    "latitude": "-33.8507549395",
    "longitude": "151.0530920327",
    "base_city": "Sydney"
  },
  {
    "z_id": "17744548",
    "name": "Duo Duo Ice Cream",
    "timings": "6 PM to 10 PM (Sun), Mon, Tue, Wed, Thu, Fri & Sat Closed",
    "price_range": 1,
    "average_cost_for_two": 0,
    "phone": "0434 567 964",
    "address": "Location varies, Dulwich Hill, Sydney",
    "latitude": "-33.9038365755",
    "longitude": "151.1415717378",
    "base_city": "Sydney"
  },
  {
    "z_id": "16565205",
    "name": "Tsuru",
    "timings": "9 AM to 5 PM",
    "price_range": 2,
    "average_cost_for_two": 30,
    "phone": "02 8076 7688, 0416 832 227",
    "address": "Nomadic Location, CBD, Sydney",
    "latitude": "-33.8740210503",
    "longitude": "151.2071651593",
    "base_city": "Sydney"
  },
  {
    "z_id": "16565892",
    "name": "Agape Organic Food Truck",
    "timings": "9 AM to 5 PM",
    "price_range": 2,
    "average_cost_for_two": 30,
    "phone": "(02) 8668 5777",
    "address": "Various Locations, CBD, Sydney",
    "latitude": "-33.8668204782",
    "longitude": "151.2098275870",
    "base_city": "Sydney"
  },
  {
    "z_id": "18398487",
    "name": "Mate Burger Truck",
    "timings": "Closed (Mon-Tue),12noon â€“ 8pm (Wed-Sat),12noon â€“ 6pm (Sun)",
    "price_range": 2,
    "average_cost_for_two": 35,
    "phone": "0451 744 644",
    "address": "1 Circular Quay Road, Circular Quay ",
    "latitude": "-33.7685806367",
    "longitude": "150.8129015565",
    "base_city": "Sydney"
  },
  {
    "z_id": "16566052",
    "name": "Urban Pasta Truck",
    "timings": "9 AM to 5 PM",
    "price_range": 1,
    "average_cost_for_two": 25,
    "phone": "0415 872 782",
    "address": "Nomadic Location, Sydney",
    "latitude": "-33.8677065939",
    "longitude": "151.2061878294",
    "base_city": "Sydney"
  },
  {
    "z_id": "18300424",
    "name": "Chorizo Chasers",
    "timings": "10 AM to 9:30 PM (Mon-Thu), 10 AM to 10 PM (Fri-Sat), 10 AM to 5 PM (Sun)",
    "price_range": 1,
    "average_cost_for_two": 20,
    "phone": "0407 111 995",
    "address": "Greenway Supacenter, 1187 The Horsely Drive, Wetherill Park, Wetherill Park, Sydney",
    "latitude": "-33.8498719893",
    "longitude": "150.8979808912",
    "base_city": "Sydney"
  },
  {
    "z_id": "18313092",
    "name": "Big Papa's Food Truck",
    "timings": "6 PM to 9 PM (Thu-Sat), Mon, Tue, Wed & Sun Closed",
    "price_range": 1,
    "average_cost_for_two": 25,
    "phone": "0423 868 303",
    "address": "Nomadic Location, Darling Harbour, Sydney",
    "latitude": "-33.8713923802",
    "longitude": "151.2023251131",
    "base_city": "Sydney"
  },
  {
    "z_id": "15545147",
    "name": "Monster Rolls",
    "timings": "11:30 AM to 10 PM (Mon-Tue), 11:30 AM to 11 PM (Wed-Thu), 11:30 AM to 12 Midnight (Fri-Sat), 11:30 AM to 9 PM (Sun)",
    "price_range": 1,
    "average_cost_for_two": 25,
    "phone": "0423 347 995",
    "address": "Nomadic Location, Darlinghurst, Sydney",
    "latitude": "-33.8794017353",
    "longitude": "151.2152989581",
    "base_city": "Sydney"
  },
  {
    "z_id": "16565813",
    "name": "Jafe Jaffles",
    "timings": "9 AM to 5 PM",
    "price_range": 1,
    "average_cost_for_two": 25,
    "phone": "0466 343 133",
    "address": "Nomadic Location, CBD, Sydney",
    "latitude": "-33.8742963558",
    "longitude": "151.2074216455",
    "base_city": "Sydney"
  },
  {
    "z_id": "17744544",
    "name": "Cali Burgers",
    "timings": "6 PM to 10 PM (Thu-Sat), 5 PM to 9 PM (Sun), Mon, Tue & Wed Closed",
    "price_range": 1,
    "average_cost_for_two": 0,
    "phone": "0448 225 447",
    "address": "20 Main St, Carnes Hill NSW 2171",
    "latitude": "-33.9381270000",
    "longitude": "150.8445860000",
    "base_city": "Sydney"
  },
  {
    "z_id": "18391665",
    "name": "Baby Rey's Burger",
    "timings": "5 PM to 10 PM (Mon-Thu), 12 Noon to 11:30 PM (Fri-Sat), 12 Noon to 10 PM (Sun)",
    "price_range": 2,
    "average_cost_for_two": 40,
    "phone": "0433 361 519",
    "address": "Stockade Barrel Room, 25 Cadogan Street, Marrickville, Sydney",
    "latitude": "-33.9106567195",
    "longitude": "151.1663737893",
    "base_city": "Sydney"
  },
  {
    "z_id": "17744078",
    "name": "Cook at Kurnell",
    "timings": "9 AM to 3 PM (Wed-Thu), 9 AM to 7 PM (Fri), 8 AM to 4 PM (Sat), 8 AM to 5 PM (Sun), Mon & Tue Closed",
    "price_range": 2,
    "average_cost_for_two": 30,
    "phone": "0412 226 622",
    "address": "306-308 Prince Charles Parade, Kurnell, Sydney",
    "latitude": "-34.0085447296",
    "longitude": "151.1952662095",
    "base_city": "Sydney"
  },
  {
    "z_id": "18348731",
    "name": "Original Choco Wrap",
    "timings": "7 PM to 12 Midnight (Fri-Sun), Mon, Tue, Wed & Thu Closed",
    "price_range": 1,
    "average_cost_for_two": 0,
    "phone": "Not available for this place",
    "address": "320 Parramatta Road, Burwood, Sydney",
    "latitude": "-33.8695985023",
    "longitude": "151.1076696217",
    "base_city": "Sydney"
  },
  {
    "z_id": "18372834",
    "name": "Raza Central Pupusas Food Truck",
    "timings": "6 PM to 10 PM (Fri), 12 Noon to 6 PM (Sat), 12:30 PM to 6 PM (Sun), Mon, Tue, Wed & Thu Closed",
    "price_range": 2,
    "average_cost_for_two": 35,
    "phone": "0419 230 761",
    "address": "Nomadic Location, Sydney, CBD, Sydney",
    "latitude": "-33.8662403083",
    "longitude": "151.2086534500",
    "base_city": "Sydney"
  },
  {
    "z_id": "15546331",
    "name": "Pull'n Shots Drive-Thru Coffee",
    "timings": "5 AM to 10 AM (Mon-Fri), Sat & Sun Closed",
    "price_range": 1,
    "average_cost_for_two": 10,
    "phone": "0409 913 320",
    "address": "2 Crane Street, Concord, Sydney",
    "latitude": "-33.8690005346",
    "longitude": "151.1070030928",
    "base_city": "Sydney"
  },
  {
    "z_id": "18313410",
    "name": "Blumont Jamaican Chicken & Burgers",
    "timings": "10 AM to 10 PM (Thu-Sat), Mon, Tue, Wed & Sun Closed",
    "price_range": 2,
    "average_cost_for_two": 30,
    "phone": "0423 429 472",
    "address": "Location varies",
    "latitude": "-33.8838844526",
    "longitude": "151.2032974139",
    "base_city": "Sydney"
  },
  {
    "z_id": "18386126",
    "name": "Sundweesh",
    "timings": "9 AM to 5 PM",
    "price_range": 2,
    "average_cost_for_two": 30,
    "phone": "04 1344 4199",
    "address": "Locations Varies, Sydney, Parramatta, Sydney",
    "latitude": "-33.8127976678",
    "longitude": "150.9623931348",
    "base_city": "Sydney"
  },
  {
    "z_id": "16567144",
    "name": "The Coffee Tram",
    "timings": "9 AM to 5 PM (Mon-Fri), Sat & Sun Closed",
    "price_range": 1,
    "average_cost_for_two": 10,
    "phone": "0417 388 621",
    "address": "Nomadic Location, Sydney",
    "latitude": "-33.8676431213",
    "longitude": "151.2064094469",
    "base_city": "Sydney"
  },
  {
    "z_id": "17742597",
    "name": "The Kerrigan",
    "timings": "11:30 AM to 9:30 PM (Mon-Thu), 11:30 AM to 10 PM (Fri-Sun)",
    "price_range": 3,
    "average_cost_for_two": 60,
    "phone": "02 8298 9999",
    "address": "18 Lower Fort Street, Dawes Point, Sydney",
    "latitude": "-33.8556392632",
    "longitude": "151.2074337155",
    "base_city": "Sydney"
  },
  {
    "z_id": "18413596",
    "name": "Fritto And Co",
    "timings": "6 PM to 9 PM (Thu), Mon, Tue, Wed, Fri, Sat & Sun Closed",
    "price_range": 1,
    "average_cost_for_two": 0,
    "phone": "Not available for this place",
    "address": "Food truck, Sydney, Castle Hill, Sydney",
    "latitude": "-33.7131507000",
    "longitude": "150.9944586083",
    "base_city": "Sydney"
  },
  {
    "z_id": "17744375",
    "name": "The Spruce Goose Diner",
    "timings": "6:30 AM to 4 PM",
    "price_range": 2,
    "average_cost_for_two": 40,
    "phone": "Not available for this place",
    "address": "Shelter Pavilion, Duck Pond, Parkes Drive, Centennial Park, Sydney",
    "latitude": "-33.9010507612",
    "longitude": "151.2338759378",
    "base_city": "Sydney"
  },
  {
    "z_id": "17747379",
    "name": "Merry Pops",
    "timings": "10 AM to 4 PM (Sat-Sun), Mon, Tue, Wed, Thu & Fri Closed",
    "price_range": 1,
    "average_cost_for_two": 10,
    "phone": "0420 882 423",
    "address": "Nomadic Location, Sydney",
    "latitude": "-33.9116717641",
    "longitude": "151.1942516640",
    "base_city": "Sydney"
  },
  {
    "z_id": "19094328",
    "name": "Sol Y Luna Food Truck",
    "timings": "11 AM to 2 PM, 6 PM to 10 PM (Tue-Thu), 11 AM to 2 PM, 6 PM to 12 Midnight (Fri), 11 AM to 12 Midnight (Sat), 11 AM to 8 PM (Sun), Mon Closed",
    "price_range": 1,
    "average_cost_for_two": 0,
    "phone": "0476 500 060",
    "address": "Nomadic Location, Sydney",
    "latitude": "-33.8598500000",
    "longitude": "151.2090100000",
    "base_city": "Sydney"
  },
  {
    "z_id": "17744984",
    "name": "Underground Coffee Roasters",
    "timings": "6:30 AM to 4 PM (Mon-Fri), Sat & Sun Closed",
    "price_range": 1,
    "average_cost_for_two": 10,
    "phone": "0410 586 724",
    "address": "7 / 2187 Castlereagh Road, Penrith, Sydney",
    "latitude": "-33.7421201435",
    "longitude": "150.6939087063",
    "base_city": "Sydney"
  },
  {
    "z_id": "17746289",
    "name": "Pepita's",
    "timings": "11 AM to 5 PM (Wed), 12 Noon to 6 PM (Thu-Sun), Mon & Tue Closed",
    "price_range": 1,
    "average_cost_for_two": 0,
    "phone": "0414 718 754",
    "address": "Nomadic Location, Manly, Sydney",
    "latitude": "-33.8999162066",
    "longitude": "151.1005657911",
    "base_city": "Sydney"
  },
  {
    "z_id": "19062045",
    "name": "Pho Street Cairns",
    "timings": "7 AM to 11 PM (Mon-Sat), 8:30 AM to 11 PM (Sun)",
    "price_range": 1,
    "average_cost_for_two": 0,
    "phone": "0477 083 515",
    "address": "Night Market, Stall 15, 54-60 Abbott Street, Cairns City, Cairns",
    "latitude": "-16.9206070000",
    "longitude": "145.7761080000",
    "base_city": "Cairns"
  },
  {
    "z_id": "19041173",
    "name": "Waffle & Puff",
    "timings": "",
    "price_range": 1,
    "average_cost_for_two": 0,
    "phone": "(07) 4051 7666",
    "address": "54-60 Abbott Street, Cairns City, Cairns",
    "latitude": "-16.9204817326",
    "longitude": "145.7763691619",
    "base_city": "Cairns"
  },
  {
    "z_id": "18897464",
    "name": "Frenchies Patisserie",
    "timings": "5 AM to 6 PM (Fri-Sat), 5 AM to 3 PM (Sun), Mon, Tue, Wed & Thu Closed",
    "price_range": 1,
    "average_cost_for_two": 0,
    "phone": "0432 508 466",
    "address": "Rusty's Markets, 57-89 Grafton Street, Cairns City, Cairns",
    "latitude": "-16.9242590000",
    "longitude": "145.7752000000",
    "base_city": "Cairns"
  },
  {
    "z_id": "16603466",
    "name": "Salt Cafe and Restaurant",
    "timings": "7:30 AM to 2:30 PM (Mon-Tue),7:30 AM to 8:30 PM (Wed-Fri),8:30 AM to 8:30 PM (Sat),8:30 AM to 2:30 PM (Sun)",
    "price_range": 3,
    "average_cost_for_two": 30,
    "phone": "(03) 6273 8833",
    "address": "110 Main Rd, Moonah, Moonah, Tasmania",
    "latitude": "-42.8459310000",
    "longitude": "147.2932170000",
    "base_city": "Tasmania"
  },
  {
    "z_id": "16603888",
    "name": "Taco Taco",
    "timings": "Dinner (Sun, Mon, Tue, Wed, Thu, Fri, Sat)",
    "price_range": 1,
    "average_cost_for_two": 7,
    "phone": "0488 060 636",
    "address": "Nomadic Location- See FB, Hobart",
    "latitude": "-42.8819030000",
    "longitude": "147.3238140000",
    "base_city": "Tasmania"
  },
  {
    "z_id": "16604310",
    "name": "Miam French Crepes",
    "timings": "",
    "price_range": 1,
    "average_cost_for_two": 7,
    "phone": "0455 583 445",
    "address": "Nomadic Location, Hobart",
    "latitude": "-42.9148213000",
    "longitude": "147.3433798000",
    "base_city": "Tasmania"
  },
  {
    "z_id": "16604332",
    "name": "Pep Pizza",
    "timings": "Dinner (Sun, Mon, Tue, Wed, Thu, Fri, Sat)",
    "price_range": 2,
    "average_cost_for_two": 20,
    "phone": "(03) 6227 2288",
    "address": "13 Beach Rd, Kingston Beach",
    "latitude": "-42.9811420000",
    "longitude": "147.3237030000",
    "base_city": "Tasmania"
  },
  {
    "z_id": "18676447",
    "name": "Mr Burger",
    "timings": "11:30 AM to 9 PM",
    "price_range": 3,
    "average_cost_for_two": 30,
    "phone": "03 6234 4323",
    "address": "120A Liverpool Street, Hobart, Tasmania",
    "latitude": "-42.8823780000",
    "longitude": "147.3260720000",
    "base_city": "Tasmania"
  },
  {
    "z_id": "16604335",
    "name": "Flamecake",
    "timings": "",
    "price_range": 2,
    "average_cost_for_two": 20,
    "phone": "0499 099 886",
    "address": "Nomadic Location; See FB, Hobart",
    "latitude": "-42.8819030000",
    "longitude": "147.3238140000",
    "base_city": "Tasmania"
  },
  {
    "z_id": "17714817",
    "name": "Cubed Espresso",
    "timings": "9 AM to 4 PM (Mon, Thu, Fri, Sat, Sun), Closed (Tue-Wed)",
    "price_range": 1,
    "average_cost_for_two": 0,
    "phone": "0439 001 588",
    "address": "Pirates Bay Lookout, Eaglehawk Neck, Tasmania",
    "latitude": "-42.9972210000",
    "longitude": "147.9325300000",
    "base_city": "Tasmania"
  },
  {
    "z_id": "17714796",
    "name": "Bentwood Coffee",
    "timings": "Closed (Mon-Tue),10 AM to 4:30 PM (Wed-Sun)",
    "price_range": 1,
    "average_cost_for_two": 0,
    "phone": "0417 719 856",
    "address": "Pinnacle Road, Wellington Park, Hobart, Tasmania",
    "latitude": "-42.9021958000",
    "longitude": "147.2434111000",
    "base_city": "Tasmania"
  },
  {
    "z_id": "16601819",
    "name": "Inti Divine Bolivian Cuisine",
    "timings": "",
    "price_range": 1,
    "average_cost_for_two": 0,
    "phone": "Not available for this place",
    "address": "Scarborough Beach Rd, Osborne Park, Perth",
    "latitude": "-31.9051206000",
    "longitude": "115.8073801000",
    "base_city": "Perth"
  },
  {
    "z_id": "16601816",
    "name": "Shiraz Soft Serve",
    "timings": "",
    "price_range": 1,
    "average_cost_for_two": 0,
    "phone": "0412 847 021",
    "address": "Nomadic Location, Upper Swan, Perth",
    "latitude": "-31.7691184000",
    "longitude": "116.0269201000",
    "base_city": "Perth"
  },
  {
    "z_id": "17841703",
    "name": "Shallot Thai",
    "timings": "5 PM to 9 PM (Mon-Tue),5 PM to 10 PM (Wed),5 PM to 11 PM (Thu-Fri),4 PM to 10 PM (Sat),4 PM to 9 PM (Sun)",
    "price_range": 1,
    "average_cost_for_two": 0,
    "phone": "Not available for this place",
    "address": "2 Roe Street, Perth",
    "latitude": "-31.9508720000",
    "longitude": "115.8607508000",
    "base_city": "Perth"
  },
  {
    "z_id": "17841700",
    "name": "Let's do Yum Cha",
    "timings": "5 PM to 9 PM (Mon-Tue),5 PM to 10 PM (Wed),5 PM to 11 PM (Thu-Fri),4 PM to 10 PM (Sat),4 PM to 9 PM (Sun)",
    "price_range": 1,
    "average_cost_for_two": 0,
    "phone": "Not available for this place",
    "address": "2 Roe Street, Perth",
    "latitude": "-31.9508720000",
    "longitude": "115.8607508000",
    "base_city": "Perth"
  },
  {
    "z_id": "18352961",
    "name": "Hit & Run Mobile Cafe",
    "timings": "24 Hours (Mon-Sun)",
    "price_range": 1,
    "average_cost_for_two": 0,
    "phone": "0402 619 318",
    "address": "Nomadic Location, Hazelmere, Perth",
    "latitude": "-31.9000000000",
    "longitude": "116.0000000000",
    "base_city": "Perth"
  },
  {
    "z_id": "18305551",
    "name": "Gourmet Poshdog",
    "timings": "",
    "price_range": 1,
    "average_cost_for_two": 0,
    "phone": "Not available for this place",
    "address": "Nomadic Location, Perth CBD, Perth",
    "latitude": "-31.8800000000",
    "longitude": "115.8000000000",
    "base_city": "Perth"
  },
  {
    "z_id": "16600769",
    "name": "Jumplings Tasty Dumplings",
    "timings": "",
    "price_range": 1,
    "average_cost_for_two": 0,
    "phone": "0403 180 331",
    "address": "Nomadic Location, Perth CBD, Perth",
    "latitude": "-31.9530044000",
    "longitude": "115.8574693000",
    "base_city": "Perth"
  },
  {
    "z_id": "18409264",
    "name": "The Acai Corner",
    "timings": "Closed (Mon),8am â€“ 2:30pm (Tue-Sun)",
    "price_range": 2,
    "average_cost_for_two": 40,
    "phone": "0488 044 806",
    "address": "South Perth Foreshore by Coode Street Playground",
    "latitude": "-31.9750530000",
    "longitude": "115.8667530000",
    "base_city": "Perth"
  },
  {
    "z_id": "16599832",
    "name": "Cool Breeze Cafe",
    "timings": "Closed (Mon),7 AM to 12 Noon (Tue-Fri),7 AM to 5 PM (Sat-Sun)",
    "price_range": 1,
    "average_cost_for_two": 0,
    "phone": "0421 310 974",
    "address": "Riverside Gardens Car Park Milne Street, Bayswater, Perth",
    "latitude": "-31.9264759000",
    "longitude": "115.9140238000",
    "base_city": "Perth"
  },
  {
    "z_id": "16600510",
    "name": "Eat No Evil.",
    "timings": "9 AM to 10 PM",
    "price_range": 1,
    "average_cost_for_two": 20,
    "phone": "0402 762 637",
    "address": "Nomadic Location, Fremantle, Perth",
    "latitude": "-32.0560399000",
    "longitude": "115.7471797000",
    "base_city": "Perth"
  },
  {
    "z_id": "16600067",
    "name": "Mojito Kantina",
    "timings": "7 AM to 12 Noon (Mon-Sun)",
    "price_range": 1,
    "average_cost_for_two": 0,
    "phone": "0426 655 445",
    "address": "Nomadic Location, Perth CBD, Perth",
    "latitude": "-31.9530044000",
    "longitude": "115.8574693000",
    "base_city": "Perth"
  },
  {
    "z_id": "17841639",
    "name": "Lena Lu",
    "timings": "11 AM to 8 PM (Mon-Wed, Sun), 11 AM to 10 PM (Thu-Sat)",
    "price_range": 1,
    "average_cost_for_two": 0,
    "phone": "0426 977 113",
    "address": "Nomadic Location, Perth, WA",
    "latitude": "-31.9381556000",
    "longitude": "115.8433601000",
    "base_city": "Perth"
  },
  {
    "z_id": "16601054",
    "name": "Bangkok Jump Street",
    "timings": "",
    "price_range": 2,
    "average_cost_for_two": 30,
    "phone": "0403 456 039",
    "address": "Nomadic Location, Perth CBD, Perth",
    "latitude": "-31.9530044000",
    "longitude": "115.8574693000",
    "base_city": "Perth"
  },
  {
    "z_id": "16601056",
    "name": "Simply Paella",
    "timings": "",
    "price_range": 2,
    "average_cost_for_two": 30,
    "phone": "0410 609 940, 0402 938 202",
    "address": "Nomadic Location, Perth CBD, Perth",
    "latitude": "-31.9530044000",
    "longitude": "115.8574693000",
    "base_city": "Perth"
  },
  {
    "z_id": "16601922",
    "name": "Las Empanadas",
    "timings": "",
    "price_range": 1,
    "average_cost_for_two": 0,
    "phone": "0424 148 228",
    "address": "Nomadic Location, Inglewood, Perth",
    "latitude": "-31.9209004000",
    "longitude": "115.8865731000",
    "base_city": "Perth"
  },
  {
    "z_id": "16601601",
    "name": "Grilled To the Mac",
    "timings": "",
    "price_range": 1,
    "average_cost_for_two": 0,
    "phone": "0403 924 185",
    "address": "Nomadic Location, Perth CBD, Perth",
    "latitude": "-31.9530044000",
    "longitude": "115.8574693000",
    "base_city": "Perth"
  },
  {
    "z_id": "16601796",
    "name": "Soul Provider Catering",
    "timings": "",
    "price_range": 2,
    "average_cost_for_two": 30,
    "phone": "0422 529 211",
    "address": "Nomadic Location, Perth CBD, Perth",
    "latitude": "-31.9547262000",
    "longitude": "115.8573660000",
    "base_city": "Perth"
  },
  {
    "z_id": "18198076",
    "name": "Top Dog in Town",
    "timings": "",
    "price_range": 1,
    "average_cost_for_two": 0,
    "phone": "0422 689 032",
    "address": "Wanneroo Markets, 33 Prindiville Drive, Wangara 6065",
    "latitude": "-31.7903584219",
    "longitude": "115.8204339085",
    "base_city": "Perth"
  },
  {
    "z_id": "16600738",
    "name": "Lil Tortilla Boi",
    "timings": "Closed (Mon-Wed),5 PM to 9 PM (Thu-Sun)",
    "price_range": 2,
    "average_cost_for_two": 40,
    "phone": "0477 877 765",
    "address": "259 Queen Victoria Street, North Fremantle, Fremantle, Perth",
    "latitude": "-32.0347703187",
    "longitude": "115.7531593848",
    "base_city": "Perth"
  },
  {
    "z_id": "16601037",
    "name": "Miam Miam a bite of France",
    "timings": "Closed (Mon-Thu),5:30 PM to 8:30 PM (Fri),9 AM to 12 Noon, 8:30 PM to 11:30 PM (Sat),8 AM to 12 Noon (Sun)",
    "price_range": 1,
    "average_cost_for_two": 20,
    "phone": "0429 190 937",
    "address": "Nomadic Location, Perth CBD, Perth",
    "latitude": "-31.9530044000",
    "longitude": "115.8574693000",
    "base_city": "Perth"
  },
  {
    "z_id": "16601138",
    "name": "Delish Ice",
    "timings": "",
    "price_range": 1,
    "average_cost_for_two": 15,
    "phone": "0448 897 717",
    "address": "Nomadic Location, Perth CBD, Perth",
    "latitude": "-31.9528536000",
    "longitude": "115.8573389000",
    "base_city": "Perth"
  },
  {
    "z_id": "17841648",
    "name": "Meast - Middle Eastern Street Food",
    "timings": "",
    "price_range": 2,
    "average_cost_for_two": 30,
    "phone": "Not available for this place",
    "address": "Nomadic Location, Yokine, Perth",
    "latitude": "-31.9015191000",
    "longitude": "115.8532682000",
    "base_city": "Perth"
  },
  {
    "z_id": "16601674",
    "name": "What the Flip!",
    "timings": "5 PM to 9:30 PM (Mon),Closed (Tue, Thu, Sat, Sun), 5 PM to 10 PM (Wed),5 PM to 9 PM (Fri)",
    "price_range": 2,
    "average_cost_for_two": 30,
    "phone": "0407 021 485",
    "address": "Crimea Park, Morley, Perth Perth CBD",
    "latitude": "-31.8851434035",
    "longitude": "115.9048169597",
    "base_city": "Perth"
  },
  {
    "z_id": "16601057",
    "name": "Shak Shuka",
    "timings": "",
    "price_range": 2,
    "average_cost_for_two": 30,
    "phone": "0421 876 744",
    "address": "Nomadic Location, Perth CBD, Perth",
    "latitude": "-31.9530044000",
    "longitude": "115.8574693000",
    "base_city": "Perth"
  },
  {
    "z_id": "16601593",
    "name": "The Holy Bagel Company (Mobile Food Vendor)",
    "timings": "",
    "price_range": 1,
    "average_cost_for_two": 5,
    "phone": "(08) 6180 8331",
    "address": "Unit 6 110 Bannister Road, Canning Vale, Perth",
    "latitude": "-32.0593140000",
    "longitude": "115.9185230000",
    "base_city": "Perth"
  },
  {
    "z_id": "16601111",
    "name": "Guerilla Foods",
    "timings": "Closed (Mon, Tue, Wed, Sat, Sun), 11 AM to 3 PM (Thu),11 AM to 9 PM (Fri)",
    "price_range": 2,
    "average_cost_for_two": 30,
    "phone": "0413 135 060",
    "address": "Nomadic Location, Perth CBD, Perth",
    "latitude": "-31.9530044000",
    "longitude": "115.8574693000",
    "base_city": "Perth"
  },
  {
    "z_id": "18445620",
    "name": "Rolling Stone Pizza",
    "timings": "",
    "price_range": 2,
    "average_cost_for_two": 30,
    "phone": "0447 766 210, 0418 984 247",
    "address": "Nomadic Location, Brisbane CBD, Brisbane",
    "latitude": "-27.4688124027",
    "longitude": "153.0243369564",
    "base_city": "Brisbane"
  },
  {
    "z_id": "18285753",
    "name": "The Frying Piggy",
    "timings": "",
    "price_range": 2,
    "average_cost_for_two": 30,
    "phone": "0407 553 388",
    "address": "Nomadic Location, Brisbane",
    "latitude": "-27.4688109153",
    "longitude": "153.0243232101",
    "base_city": "Brisbane"
  },
  {
    "z_id": "19103382",
    "name": "Miss Flossy",
    "timings": "4 PM to 10 PM (Fri-Sat), 12 Noon to 8 PM (Sun), Mon, Tue, Wed & Thu Closed",
    "price_range": 1,
    "average_cost_for_two": 0,
    "phone": "0422 883 116",
    "address": "Eat Street Markets, Hamilton, Brisbane",
    "latitude": "-27.4434090000",
    "longitude": "153.0797920000",
    "base_city": "Brisbane"
  },
  {
    "z_id": "18673432",
    "name": "Straddie Wood Fired Pizza",
    "timings": "4:30 PM to 8 PM (Fri-Sun), Mon, Tue, Wed & Thu Closed",
    "price_range": 2,
    "average_cost_for_two": 40,
    "phone": "0457 629 782",
    "address": "Dickson Way, Point Lookout",
    "latitude": "-27.4260530000",
    "longitude": "153.5333140000",
    "base_city": "Brisbane"
  },
  {
    "z_id": "18623567",
    "name": "Salt Pepper & Cumin",
    "timings": "",
    "price_range": 1,
    "average_cost_for_two": 0,
    "phone": "0424 107 389",
    "address": "Nomadic Location, Brisbane",
    "latitude": "-27.4663680007",
    "longitude": "153.0305714160",
    "base_city": "Brisbane"
  },
  {
    "z_id": "18751763",
    "name": "Hello Thailand",
    "timings": "",
    "price_range": 2,
    "average_cost_for_two": 35,
    "phone": "0422 525 968",
    "address": "Nomadic Location, Brisbane, QLD",
    "latitude": "-27.4673291685",
    "longitude": "153.0304721743",
    "base_city": "Brisbane"
  },
  {
    "z_id": "18664092",
    "name": "Crunchy's",
    "timings": "",
    "price_range": 1,
    "average_cost_for_two": 0,
    "phone": "0455 303 883",
    "address": "Nomadic Location, Brisbane",
    "latitude": "-27.7151978538",
    "longitude": "153.1926127151",
    "base_city": "Brisbane"
  },
  {
    "z_id": "18445600",
    "name": "Danny Boys Food Truck",
    "timings": "",
    "price_range": 2,
    "average_cost_for_two": 30,
    "phone": "1300 833 977",
    "address": "Nomadic Location, Brisbane, QLD",
    "latitude": "-27.4685509194",
    "longitude": "153.0243805423",
    "base_city": "Brisbane"
  },
  {
    "z_id": "18445624",
    "name": "Sate House",
    "timings": "",
    "price_range": 2,
    "average_cost_for_two": 30,
    "phone": "0403 079 988",
    "address": "Nomadic Location, Brisbane, QLD",
    "latitude": "-27.4688240043",
    "longitude": "153.0243171752",
    "base_city": "Brisbane"
  },
  {
    "z_id": "17989240",
    "name": "Fire 'n' Dough",
    "timings": "",
    "price_range": 1,
    "average_cost_for_two": 25,
    "phone": "0403 930 454",
    "address": "Nomadic Location, Brisbane",
    "latitude": "-27.6131053930",
    "longitude": "153.3044346795",
    "base_city": "Brisbane"
  },
  {
    "z_id": "18445618",
    "name": "Pirate's Plate",
    "timings": "",
    "price_range": 2,
    "average_cost_for_two": 30,
    "phone": "0433 447 147",
    "address": "Nomadic Location, Brisbane, QLD",
    "latitude": "-27.4685259312",
    "longitude": "153.0245056003",
    "base_city": "Brisbane"
  },
  {
    "z_id": "18300662",
    "name": "Fiery Deli",
    "timings": "",
    "price_range": 2,
    "average_cost_for_two": 40,
    "phone": "0438 142 438",
    "address": "Nomadic Location, Brisbane, QLD",
    "latitude": "-27.4688037758",
    "longitude": "153.0243178457",
    "base_city": "Brisbane"
  },
  {
    "z_id": "18445606",
    "name": "Juice Power",
    "timings": "",
    "price_range": 1,
    "average_cost_for_two": 20,
    "phone": "0402 534 751",
    "address": "Nomadic Location, Brisbane, QLD",
    "latitude": "-27.4688216245",
    "longitude": "153.0243148282",
    "base_city": "Brisbane"
  },
  {
    "z_id": "17989252",
    "name": "Cone Queen",
    "timings": "",
    "price_range": 1,
    "average_cost_for_two": 15,
    "phone": "0406 242 824",
    "address": "Nomadic Location, Brisbane, QLD",
    "latitude": "-27.4688049658",
    "longitude": "153.0243245512",
    "base_city": "Brisbane"
  },
  {
    "z_id": "17989495",
    "name": "Mr America Hotdogs and Fries",
    "timings": "",
    "price_range": 1,
    "average_cost_for_two": 25,
    "phone": "0405 477 100",
    "address": "Nomadic Location, Brisbane, QLD",
    "latitude": "-27.4687070955",
    "longitude": "153.0245253816",
    "base_city": "Brisbane"
  },
  {
    "z_id": "18362515",
    "name": "The Dapper and Chic",
    "timings": "",
    "price_range": 2,
    "average_cost_for_two": 30,
    "phone": "0490 251 410",
    "address": "Nomadic Location, Brisbane",
    "latitude": "-27.4688091304",
    "longitude": "153.0243406445",
    "base_city": "Brisbane"
  },
  {
    "z_id": "18445604",
    "name": "Joe's BBQ Ribs",
    "timings": "",
    "price_range": 2,
    "average_cost_for_two": 30,
    "phone": "Not available for this place",
    "address": "Nomadic Location, Brisbane, QLD",
    "latitude": "-27.4688058582",
    "longitude": "153.0243292451",
    "base_city": "Brisbane"
  },
  {
    "z_id": "18447603",
    "name": "WOW Sausage",
    "timings": "4 PM to 10 PM (Fri-Sat), 12 Noon to 8 PM (Sun), Mon, Tue, Wed & Thu Closed",
    "price_range": 2,
    "average_cost_for_two": 30,
    "phone": "0468 851 989",
    "address": "Eat Street Markets, Nomadic Location, Brisbane",
    "latitude": "-27.4437797805",
    "longitude": "153.0806623399",
    "base_city": "Brisbane"
  },
  {
    "z_id": "18445602",
    "name": "EveNmoore Street Food",
    "timings": "",
    "price_range": 2,
    "average_cost_for_two": 30,
    "phone": "0432 079 357",
    "address": "Nomadic Location, Kallangur, Brisbane",
    "latitude": "-27.2423657755",
    "longitude": "152.9929111898",
    "base_city": "Brisbane"
  },
  {
    "z_id": "18692032",
    "name": "Happy Smiley Coffee Van",
    "timings": "5:30 AM to 1 PM (Mon-Fri), Sat & Sun Closed",
    "price_range": 1,
    "average_cost_for_two": 15,
    "phone": "0423 261 594",
    "address": "Nomadic Location, Cannon Hill, Brisbane",
    "latitude": "-27.4586259953",
    "longitude": "153.0879522488",
    "base_city": "Brisbane"
  },
  {
    "z_id": "19011552",
    "name": "Seoul Station",
    "timings": "10 AM to 7 PM (Mon-Wed, Sat-Sun), 10 AM to 9 PM (Thu-Fri)",
    "price_range": 1,
    "average_cost_for_two": 25,
    "phone": "0431 221 133",
    "address": "Melbourne Central, Level 1, 211 La Trobe Street, CBD, Melbourne",
    "latitude": "-37.8098390491",
    "longitude": "144.9637429789",
    "base_city": "Melbourne"
  },
  {
    "z_id": "18162512",
    "name": "Maker & Monger",
    "timings": "8 AM to 4 PM (Mon-Sat), 9:30 AM to 3 PM (Sun)",
    "price_range": 2,
    "average_cost_for_two": 40,
    "phone": "0413 900 490",
    "address": "Prahran Market, 163 Commercial Road, South Yarra, Melbourne",
    "latitude": "-37.8460266869",
    "longitude": "144.9928486347",
    "base_city": "Melbourne"
  },
  {
    "z_id": "18142714",
    "name": "Wasshoi",
    "timings": "11 AM to 4 PM (Mon-Fri), 10 AM to 4:30 PM (Sat), 10 AM to 3 PM (Sun)",
    "price_range": 3,
    "average_cost_for_two": 50,
    "phone": "03 9639 5051",
    "address": "Prahran Market, 163 Commercial Road, South Yarra, Melbourne",
    "latitude": "-37.8458763059",
    "longitude": "144.9931222200",
    "base_city": "Melbourne"
  },
  {
    "z_id": "16581844",
    "name": "Mussel Pot",
    "timings": "7 AM to 5 PM (Mon-Sat), 10 AM to 3 PM (Sun)",
    "price_range": 2,
    "average_cost_for_two": 30,
    "phone": "0499 687 735",
    "address": "Prahran Market, 163 Commercial Road, South Yarra, Melbourne",
    "latitude": "-37.8462440504",
    "longitude": "144.9921797589",
    "base_city": "Melbourne"
  },
  {
    "z_id": "16586212",
    "name": "Hoy Pinoy",
    "timings": "5 PM to 10 PM (Thu-Fri), Mon, Tue, Wed, Sat & Sun Closed",
    "price_range": 1,
    "average_cost_for_two": 25,
    "phone": "0439 374 669",
    "address": "Nomadic Location",
    "latitude": "-37.8663975600",
    "longitude": "144.9757301062",
    "base_city": "Melbourne"
  },
  {
    "z_id": "19099495",
    "name": "Phat Fried Ice Cream",
    "timings": "9 AM to 4 PM (Sun), Mon, Tue, Wed, Thu, Fri & Sat Closed",
    "price_range": 1,
    "average_cost_for_two": 0,
    "phone": "Not available for this place",
    "address": "Queen Victoria Market, 531 Elizabeth Street, CBD, Melbourne",
    "latitude": "-37.8075734545",
    "longitude": "144.9567849934",
    "base_city": "Melbourne"
  },
  {
    "z_id": "16578959",
    "name": "The Falafel Man",
    "timings": "9:30 AM to 4 PM",
    "price_range": 2,
    "average_cost_for_two": 30,
    "phone": "0414 724 578",
    "address": "Prahran Market, 163 Commercial Road, South Yarra, Melbourne",
    "latitude": "-37.8462249881",
    "longitude": "144.9922904000",
    "base_city": "Melbourne"
  },
  {
    "z_id": "18666790",
    "name": "D'Elephant Thai Street Food",
    "timings": "10 AM to 5 PM (Mon-Wed, Sat-Sun), 10 AM to 9 PM (Thu-Fri)",
    "price_range": 2,
    "average_cost_for_two": 30,
    "phone": "Not available for this place",
    "address": "The Glen, Ground Floor, Shop G-046, 235 Springvale Road, Glen Waverley, Melbourne",
    "latitude": "-37.8748626563",
    "longitude": "145.1662065089",
    "base_city": "Melbourne"
  },
  {
    "z_id": "18781123",
    "name": "Woodfrog Bakery",
    "timings": "7:30 AM to 6:30 PM",
    "price_range": 1,
    "average_cost_for_two": 15,
    "phone": "Not available for this place",
    "address": "82 Elizabeth Street, CBD, Melbourne",
    "latitude": "-37.8165021909",
    "longitude": "144.9643260241",
    "base_city": "Melbourne"
  },
  {
    "z_id": "18665166",
    "name": "D'Elephant Thai Street Food",
    "timings": "10 AM to 5 PM (Mon-Wed, Sat-Sun), 10 AM to 9 PM (Thu-Fri)",
    "price_range": 2,
    "average_cost_for_two": 30,
    "phone": "Not available for this place",
    "address": "Eastland Shopping Centre, Level 2, 171-175 Maroondah Highway, Ringwood, Melbourne",
    "latitude": "-37.8123117075",
    "longitude": "145.2290258557",
    "base_city": "Melbourne"
  },
  {
    "z_id": "18759946",
    "name": "Cannoleria by That's Amore Cheese",
    "timings": "8 AM to 4 PM (Wed, Sat-Sun), 8 AM to 5 PM (Fri), Mon, Tue & Thu Closed",
    "price_range": 1,
    "average_cost_for_two": 20,
    "phone": "03 9463 4202",
    "address": "South Melbourne Market, Corner of Coventry & Cecil Streets, South Melbourne, Melbourne",
    "latitude": "-37.8325086489",
    "longitude": "144.9570676312",
    "base_city": "Melbourne"
  },
  {
    "z_id": "18360429",
    "name": "Kebab Kingz",
    "timings": "5:30 PM to 2:30 AM (Mon-Thu, Sun), 5:30 PM to 4:30 AM (Fri-Sat)",
    "price_range": 2,
    "average_cost_for_two": 35,
    "phone": "0490 349 365",
    "address": "Corner of Dudley Street and Spencer Street, West Melbourne, Melbourne",
    "latitude": "-37.8098038194",
    "longitude": "144.9499353021",
    "base_city": "Melbourne"
  },
  {
    "z_id": "18806307",
    "name": "Si-KAT Pinot Eatscetera",
    "timings": "7 AM to 4 PM (Tue, Sat), 7 AM to 5 PM (Fri), 10 AM to 3 PM (Sun), Mon, Wed & Thu Closed",
    "price_range": 1,
    "average_cost_for_two": 25,
    "phone": "Not available for this place",
    "address": "Dandenong Market, 16 Cleeland Street, Dandenong, Melbourne",
    "latitude": "-37.9842614700",
    "longitude": "145.2157894895",
    "base_city": "Melbourne"
  },
  {
    "z_id": "18701488",
    "name": "Geloso Gelateria",
    "timings": "Closed (Mon, Wed), 9am â€“ 3pm (Tue, Thu), 9am â€“ 4pm (Fri-Sat),9am â€“ 5pm (Sun)",
    "price_range": 1,
    "average_cost_for_two": 15,
    "phone": "0427 844 220",
    "address": "Queen Victoria Market, F shed, Shop 5, Queen Street, Melbourne 3000",
    "latitude": "-37.8073170376",
    "longitude": "144.9576952681",
    "base_city": "Melbourne"
  },
  {
    "z_id": "16584614",
    "name": "Ann's Fish & Chips",
    "timings": "7 AM to 4 PM",
    "price_range": 1,
    "average_cost_for_two": 25,
    "phone": "03 9827 0528",
    "address": "Prahran Market, 163 Commercial Road, South Yarra, Melbourne",
    "latitude": "-37.8461945413",
    "longitude": "144.9921998754",
    "base_city": "Melbourne"
  },
  {
    "z_id": "18545355",
    "name": "Dutch Pancakes",
    "timings": "10 AM to 4 PM (Sun), Mon, Tue, Wed, Thu, Fri & Sat Closed",
    "price_range": 1,
    "average_cost_for_two": 20,
    "phone": "Not available for this place",
    "address": "Queen Victoria Market, 513 Elizabeth Street, CBD, Melbourne",
    "latitude": "-37.8070558518",
    "longitude": "144.9567970634",
    "base_city": "Melbourne"
  },
  {
    "z_id": "18925673",
    "name": "Super Raw",
    "timings": "8 AM to 3 PM (Wed, Sat-Sun), 8 AM to 6 PM (Thu-Fri), Mon & Tue Closed",
    "price_range": 2,
    "average_cost_for_two": 30,
    "phone": "Not available for this place",
    "address": "N14 Pam Lane, Preston Market, Cramer Street & Mary Street, Preston, Melbourne",
    "latitude": "-37.7389300749",
    "longitude": "145.0016097352",
    "base_city": "Melbourne"
  },
  {
    "z_id": "18681877",
    "name": "Miss Wonton",
    "timings": "9 AM to 5:30 PM (Mon-Wed), 9 AM to 8 PM (Thu-Fri), 9 AM to 5 PM (Sat-Sun)",
    "price_range": 2,
    "average_cost_for_two": 30,
    "phone": "0402 416 504",
    "address": "Nomadic Location",
    "latitude": "-37.6886851073",
    "longitude": "144.8847277835",
    "base_city": "Melbourne"
  },
  {
    "z_id": "18401470",
    "name": "Gozleme Turkish Cafe",
    "timings": "9 AM to 2 PM (Tue, Thu), 9 AM to 3 PM (Fri-Sat), 9 AM to 4 PM (Sun), Mon & Wed Closed",
    "price_range": 2,
    "average_cost_for_two": 40,
    "phone": "03 9329 3433",
    "address": "Queen Victoria Market, Shed F, 513 Elizabeth Street, CBD, Melbourne",
    "latitude": "-37.8073318717",
    "longitude": "144.9567903578",
    "base_city": "Melbourne"
  },
  {
    "z_id": "18508870",
    "name": "The Pham Sisters- Vietnamese Vegan Eatery",
    "timings": "6 PM to 9:30 PM (Thu-Fri), Mon, Tue, Wed, Sat & Sun Closed",
    "price_range": 2,
    "average_cost_for_two": 35,
    "phone": "0431 436 814",
    "address": "Nomadic Location",
    "latitude": "-37.8298346149",
    "longitude": "144.9525118992",
    "base_city": "Melbourne"
  },
  {
    "z_id": "16605558",
    "name": "Box Office",
    "timings": "Breakfast, Lunch (Sun, Mon, Tue, Wed, Thu, Fri, Sat)",
    "price_range": 1,
    "average_cost_for_two": 0,
    "phone": "Not available for this place",
    "address": "77 Preston St, Geelong West, Geelong West, Geelong",
    "latitude": "-38.1400918000",
    "longitude": "144.3488360000",
    "base_city": "Geelong"
  },
  {
    "z_id": "16607357",
    "name": "El Chiringuito de la Roja",
    "timings": "Lunch (Sun, Mon, Tue, Wed, Thu), Lunch, Dinner (Fri-Sat)",
    "price_range": 2,
    "average_cost_for_two": 20,
    "phone": "0437 987 052",
    "address": "Geelong CBD Harbour, Geelong, Geelong CBD, Geelong",
    "latitude": "-38.1447120000",
    "longitude": "144.3651740000",
    "base_city": "Geelong"
  },
  {
    "z_id": "16605513",
    "name": "Cheeky Cow",
    "timings": "Breakfast, Lunch (Sun, Tue, Wed, Thu, Sat),  (Mon),Breakfast, Lunch, Dinner (Fri)",
    "price_range": 1,
    "average_cost_for_two": 7,
    "phone": "(03) 5255 1677",
    "address": "131 Ocean Throughway, Ocean Grove",
    "latitude": "-38.2707560000",
    "longitude": "144.5468190000",
    "base_city": "Ocean Grove"
  },
  {
    "z_id": "16613884",
    "name": "Eagle Boys Pizza Centenary Park",
    "timings": "Dinner, Late (Sun, Mon, Tue, Wed, Thu, Fri, Sat)",
    "price_range": 1,
    "average_cost_for_two": 7,
    "phone": "1300 324 532",
    "address": "Shop 1a, 11 Supply Road, Bentley Park",
    "latitude": "-17.0034160000",
    "longitude": "145.7437130000",
    "base_city": "Bentley Park"
  },
  {
    "z_id": "16613909",
    "name": "Eagle Boys Pizza Mareeba",
    "timings": "Dinner, Late (Sun, Mon, Tue, Wed, Thu, Fri, Sat)",
    "price_range": 1,
    "average_cost_for_two": 7,
    "phone": "1300 324 534",
    "address": "95 Byrnes Street, Mareeba",
    "latitude": "-16.9937130000",
    "longitude": "145.4223180000",
    "base_city": "Mareeba"
  },
  {
    "z_id": "16614235",
    "name": "German Tucker",
    "timings": "Lunch (Sun, Mon, Tue, Wed, Thu, Fri, Sat)",
    "price_range": 1,
    "average_cost_for_two": 7,
    "phone": "(07) 4057 9688",
    "address": "Therwine St, Cairns",
    "latitude": "-16.8193826000",
    "longitude": "145.6337076000",
    "base_city": "Cairns"
  },
  {
    "z_id": "16613869",
    "name": "Eagle Boys Pizza Cairns",
    "timings": "Dinner, Late (Sun, Mon, Tue, Wed, Thu, Fri, Sat)",
    "price_range": 1,
    "average_cost_for_two": 7,
    "phone": "1300 324 532",
    "address": "304-308 Mulgrave Rd, Westcourt",
    "latitude": "-16.9359260000",
    "longitude": "145.7517850000",
    "base_city": "Westcourt"
  },
  {
    "z_id": "16611072",
    "name": "Il Carretto",
    "timings": "(Sun, Mon, Tue, Wed), Dinner (Thu-Sat)",
    "price_range": 1,
    "average_cost_for_two": 7,
    "phone": "0403 806 849",
    "address": "31 Coleman St, Bexhill",
    "latitude": "-28.7682000000",
    "longitude": "153.3443310000",
    "base_city": "Bexhill"
  },
  {
    "z_id": "16610756",
    "name": "Fire in the Belly",
    "timings": "Closed (Mon-Tue),5 PM to 9 PM (Wed-Sun)",
    "price_range": 2,
    "average_cost_for_two": 20,
    "phone": "(02) 6621 4899",
    "address": "109 Dawson Street, Lismore, Lismore",
    "latitude": "-28.8112393000",
    "longitude": "153.2795593000",
    "base_city": "Lismore"
  },
  {
    "z_id": "16611534",
    "name": "Lismore Pie Cart",
    "timings": "(Sun),Breakfast, Lunch (Mon-Sat)",
    "price_range": 1,
    "average_cost_for_two": 7,
    "phone": "(02) 6622 2946",
    "address": "11 Magellan Street, Lismore",
    "latitude": "-28.8086849000",
    "longitude": "153.2756526000",
    "base_city": "Lismore"
  },
  {
    "z_id": "16610965",
    "name": "Cafe Oska",
    "timings": "8 AM to 4 PM (Mon-Tue),8 AM to 11:30 PM (Wed),8 AM to 4 PM, 6 PM to 10 PM (Thu-Sat),Closed (Sun)",
    "price_range": 2,
    "average_cost_for_two": 20,
    "phone": "0416 887 884",
    "address": "2/1 Carlyle St, Byron Bay",
    "latitude": "-28.6461366000",
    "longitude": "153.6135864000",
    "base_city": "Byron Bay"
  },
  {
    "z_id": "16611006",
    "name": "Steampunk Espresso",
    "timings": "",
    "price_range": 1,
    "average_cost_for_two": 7,
    "phone": "0433 755 059",
    "address": "Nomadic Location, Byron Bay",
    "latitude": "-28.6441616000",
    "longitude": "153.6123788000",
    "base_city": "Byron Bay"
  },
  {
    "z_id": "16595262",
    "name": "Lost Bean",
    "timings": "6 AM to 1:30 PM",
    "price_range": 1,
    "average_cost_for_two": 10,
    "phone": "0406 317 140",
    "address": "Nomadic Location, South Bank, Brisbane",
    "latitude": "-27.4753463085",
    "longitude": "153.0212651566",
    "base_city": "Brisbane"
  },
  {
    "z_id": "18170078",
    "name": "Phatboys",
    "timings": "",
    "price_range": 1,
    "average_cost_for_two": 25,
    "phone": "0422 012 912",
    "address": "Nomadic Location, Brisbane, QLD",
    "latitude": "-27.4688240043",
    "longitude": "153.0243248865",
    "base_city": "Brisbane"
  },
  {
    "z_id": "19103328",
    "name": "Barcelona Churros",
    "timings": "",
    "price_range": 1,
    "average_cost_for_two": 0,
    "phone": "0400 666 474",
    "address": "Nomadic Location, Brisbane",
    "latitude": "-27.5135410000",
    "longitude": "152.9770250000",
    "base_city": "Brisbane"
  },
  {
    "z_id": "18633914",
    "name": "IndiMex On Wheels",
    "timings": "",
    "price_range": 1,
    "average_cost_for_two": 0,
    "phone": "07 3394 1000",
    "address": "Nomadic Location, Brisbane",
    "latitude": "-27.4687906868",
    "longitude": "153.0279653147",
    "base_city": "Brisbane"
  },
  {
    "z_id": "17989529",
    "name": "Micasa Food Truck",
    "timings": "",
    "price_range": 1,
    "average_cost_for_two": 25,
    "phone": "0428 900 503",
    "address": "Various Locations, Brisbane",
    "latitude": "-27.4688058582",
    "longitude": "153.0243262276",
    "base_city": "Brisbane"
  },
  {
    "z_id": "18178325",
    "name": "Carolina Kitchen Food Truck",
    "timings": "",
    "price_range": 2,
    "average_cost_for_two": 30,
    "phone": "07 3899 5551",
    "address": "Locations Varies, Brisbane, QLD",
    "latitude": "-27.4663031490",
    "longitude": "153.0307159200",
    "base_city": "Brisbane"
  },
  {
    "z_id": "18793809",
    "name": "Vintage Mobile Coffee",
    "timings": "",
    "price_range": 1,
    "average_cost_for_two": 0,
    "phone": "0415 807 990",
    "address": "Nomadic Location, Brisbane",
    "latitude": "-27.6436126091",
    "longitude": "153.1137534231",
    "base_city": "Brisbane"
  },
  {
    "z_id": "18074907",
    "name": "Shuck It!",
    "timings": "4 PM to 10 PM (Fri-Sat), Mon, Tue, Wed, Thu & Sun Closed",
    "price_range": 1,
    "average_cost_for_two": 25,
    "phone": "(07) 3172 9430",
    "address": "Eat Street Markets, Nomadic Location, Hamilton, Brisbane",
    "latitude": "-27.4435839955",
    "longitude": "153.0806318298",
    "base_city": "Brisbane"
  },
  {
    "z_id": "16594338",
    "name": "The Coffee Cart",
    "timings": "8 AM to 2 PM (Mon-Fri), 8 AM to 3 PM (Sat-Sun)",
    "price_range": 1,
    "average_cost_for_two": 15,
    "phone": "0448 071 852",
    "address": "Botanic Gardens, Brisbane CBD, Brisbane",
    "latitude": "-27.4739140286",
    "longitude": "153.0297349021",
    "base_city": "Brisbane"
  },
  {
    "z_id": "18440120",
    "name": "Abbiocco",
    "timings": "",
    "price_range": 2,
    "average_cost_for_two": 30,
    "phone": "0403 644 136",
    "address": "Nomadic Location, Brisbane, QLD",
    "latitude": "-27.4688043708",
    "longitude": "153.0243195221",
    "base_city": "Brisbane"
  },
  {
    "z_id": "18898723",
    "name": "Istanbul Eats",
    "timings": "",
    "price_range": 1,
    "average_cost_for_two": 0,
    "phone": "0468 478 477",
    "address": "Nomadic Location, South Brisbane",
    "latitude": "-27.4906938852",
    "longitude": "153.0353356898",
    "base_city": "Brisbane"
  },
  {
    "z_id": "18445610",
    "name": "Kraut N' About",
    "timings": "",
    "price_range": 2,
    "average_cost_for_two": 30,
    "phone": "0407 768 936",
    "address": "Nomadic Location, Brisbane, QLD",
    "latitude": "-27.4688248968",
    "longitude": "153.0243275687",
    "base_city": "Brisbane"
  },
  {
    "z_id": "18445616",
    "name": "The South American Grill",
    "timings": "4 PM to 10 PM (Fri), 3 PM to 9:30 PM (Sat), 11 AM to 7 PM (Sun), Mon, Tue, Wed & Thu Closed",
    "price_range": 2,
    "average_cost_for_two": 30,
    "phone": "0421 458 693",
    "address": "Eat Street Markets, Nomadic Location, Hamilton, Brisbane",
    "latitude": "-27.4435539434",
    "longitude": "153.0803341046",
    "base_city": "Brisbane"
  },
  {
    "z_id": "18445596",
    "name": "Catch and Kiss Seafood",
    "timings": "",
    "price_range": 2,
    "average_cost_for_two": 30,
    "phone": "Not available for this place",
    "address": "Nomadic Location, Brisbane, QLD",
    "latitude": "-27.4688213270",
    "longitude": "153.0243141577",
    "base_city": "Brisbane"
  },
  {
    "z_id": "17989236",
    "name": "How We Rolls",
    "timings": "",
    "price_range": 2,
    "average_cost_for_two": 30,
    "phone": "Not available for this place",
    "address": "Nomadic Location, Brisbane",
    "latitude": "-27.4688082380",
    "longitude": "153.0243376270",
    "base_city": "Brisbane"
  },
  {
    "z_id": "17989516",
    "name": "Tender Calamari",
    "timings": "6 AM to 12 Noon (Sat-Sun), Mon, Tue, Wed, Thu & Fri Closed",
    "price_range": 1,
    "average_cost_for_two": 25,
    "phone": "0421 475 746",
    "address": "Nomadic Location, Rocklea, Brisbane",
    "latitude": "-27.5389730000",
    "longitude": "153.0021690000",
    "base_city": "Brisbane"
  },
  {
    "z_id": "19021451",
    "name": "Gelato Ã  Go-Go",
    "timings": "",
    "price_range": 1,
    "average_cost_for_two": 0,
    "phone": "0401 316 926",
    "address": "Nomadic Location, Brisbane",
    "latitude": "-27.4741267151",
    "longitude": "153.0290274695",
    "base_city": "Brisbane"
  },
  {
    "z_id": "19103389",
    "name": "Arriba Churroria",
    "timings": "4 PM to 10 PM (Fri-Sat), 12 Noon to 8 PM (Sun), Mon, Tue, Wed & Thu Closed",
    "price_range": 1,
    "average_cost_for_two": 20,
    "phone": "Not available for this place",
    "address": "Eat Street Markets, Hamilton, Brisbane",
    "latitude": "-27.4430230000",
    "longitude": "153.0800660000",
    "base_city": "Brisbane"
  },
  {
    "z_id": "19103407",
    "name": "Bruce The Food Truck",
    "timings": "",
    "price_range": 1,
    "average_cost_for_two": 0,
    "phone": "0413 227 715",
    "address": "Nomadic Location, Brisbane",
    "latitude": "-27.5447638078",
    "longitude": "153.0830756575",
    "base_city": "Brisbane"
  },
  {
    "z_id": "18709476",
    "name": "Hot Diggidy Dog",
    "timings": "12 Noon to 10 PM",
    "price_range": 1,
    "average_cost_for_two": 10,
    "phone": "0413 895 886",
    "address": "271, London Road, Belmont, Brisbane (Nomadic Location)",
    "latitude": "-27.4841451256",
    "longitude": "153.1258464977",
    "base_city": "Brisbane"
  },
  {
    "z_id": "19122675",
    "name": "Breakfast Shack",
    "timings": "6 AM to 12 Noon (Sat-Sun), Mon, Tue, Wed, Thu & Fri Closed",
    "price_range": 1,
    "average_cost_for_two": 0,
    "phone": "0415 511 615",
    "address": "Nomadic Location, Nundah, Brisbane",
    "latitude": "-27.4136610000",
    "longitude": "153.0569930000",
    "base_city": "Brisbane"
  },
  {
    "z_id": "19103396",
    "name": "Hierba Santa",
    "timings": "",
    "price_range": 1,
    "average_cost_for_two": 0,
    "phone": "0479 118 229",
    "address": "Nomadic Location, Hamilton, Brisbane",
    "latitude": "-27.4431100000",
    "longitude": "153.0795910000",
    "base_city": "Brisbane"
  },
  {
    "z_id": "19103378",
    "name": "Slinkys",
    "timings": "4 PM to 10 PM (Fri-Sat), 12 Noon to 8 PM (Sun), Mon, Tue, Wed & Thu Closed",
    "price_range": 1,
    "average_cost_for_two": 15,
    "phone": "1300 328 787",
    "address": "Eat Street Markets, Hamilton, Brisbane",
    "latitude": "-27.4433030000",
    "longitude": "153.0797060000",
    "base_city": "Brisbane"
  },
  {
    "z_id": "18614420",
    "name": "Tonic Specialty Coffee",
    "timings": "6:30 AM to 8:30 PM (Mon-Thu, Sun), 6:30 AM to 10:30 PM (Fri-Sat)",
    "price_range": 1,
    "average_cost_for_two": 10,
    "phone": "0484 579 076",
    "address": "Shop 5, 7 Albany Forest Drive, Albany Creek, Brisbane",
    "latitude": "-27.3588092256",
    "longitude": "152.9692866281",
    "base_city": "Brisbane"
  },
  {
    "z_id": "18810618",
    "name": "Fancy Egg Waffle",
    "timings": "6 AM to 12 Noon (Sat-Sun), Mon, Tue, Wed, Thu & Fri Closed",
    "price_range": 1,
    "average_cost_for_two": 0,
    "phone": "Not available for this place",
    "address": "Nomadic Location, Brisbane Marketplace, Rocklea, Brisbane",
    "latitude": "-27.5389730000",
    "longitude": "153.0021690000",
    "base_city": "Brisbane"
  },
  {
    "z_id": "19043084",
    "name": "Mr Tea Bubble Tea",
    "timings": "9:30 AM to 7:30 PM (Mon-Thu), 9:30 AM to 8 PM (Fri), 10 AM to 5:30 PM (Sat), Sun Closed",
    "price_range": 1,
    "average_cost_for_two": 10,
    "phone": "0415 969 417",
    "address": "39 Alfred Street, Fortitude Valley, Brisbane",
    "latitude": "-27.4550222551",
    "longitude": "153.0343369022",
    "base_city": "Brisbane"
  },
  {
    "z_id": "19139426",
    "name": "Aburi Boi Street Food",
    "timings": "11:30 AM to 9 PM (Tue, Sat), Mon, Wed, Thu, Fri & Sun Closed",
    "price_range": 2,
    "average_cost_for_two": 35,
    "phone": "Not available for this place",
    "address": "Wandering Cooks, Corner of Cordelia St and Fish Lane, South Brisbane, Brisbane",
    "latitude": "-27.4753873580",
    "longitude": "153.0155497044",
    "base_city": "Brisbane"
  },
  {
    "z_id": "19159652",
    "name": "Smoky Mountain Hideaway",
    "timings": "8 AM to 1 PM (Sat), 3:30 PM to 8:30 PM (Sun), Mon, Tue, Wed, Thu & Fri Closed",
    "price_range": 2,
    "average_cost_for_two": 40,
    "phone": "Not available for this place",
    "address": "Wandering Cooks, Corner of Fish Lane and Cordelia Street, South Brisbane, Brisbane",
    "latitude": "-27.4754444703",
    "longitude": "153.0156207830",
    "base_city": "Brisbane"
  },
  {
    "z_id": "19139425",
    "name": "East by Middle East",
    "timings": "5 PM to 9 PM (Thu), 12 Noon to 10 PM (Sat), Mon, Tue, Wed, Fri & Sun Closed",
    "price_range": 2,
    "average_cost_for_two": 40,
    "phone": "Not available for this place",
    "address": "Wandering Cooks, Corner of Cordelia Street and Fish Lane, South Brisbane, Brisbane",
    "latitude": "-27.4751776484",
    "longitude": "153.0156791210",
    "base_city": "Brisbane"
  },
  {
    "z_id": "18445584",
    "name": "Chilli Sisters",
    "timings": "4 PM to 10 PM (Fri-Sat), 12 Noon to 8 PM (Sun), Mon, Tue, Wed & Thu Closed",
    "price_range": 1,
    "average_cost_for_two": 25,
    "phone": "0419 765 727",
    "address": "Eat Street Markets, Nomadic Location, Hamilton, Brisbane",
    "latitude": "-27.4434364127",
    "longitude": "153.0799213797",
    "base_city": "Brisbane"
  },
  {
    "z_id": "18658108",
    "name": "New Zealand Natural",
    "timings": "10 AM to 4 PM",
    "price_range": 1,
    "average_cost_for_two": 10,
    "phone": "(07) 3844 8037",
    "address": "South Bank Parklands, The Promenade, South Bank, Brisbane",
    "latitude": "-27.4768205111",
    "longitude": "153.0223926902",
    "base_city": "Brisbane"
  },
  {
    "z_id": "18445590",
    "name": "Bangkok BBQ",
    "timings": "4 PM to 10 PM (Fri-Sat), 12 Noon to 8 PM (Sun), Mon, Tue, Wed & Thu Closed",
    "price_range": 1,
    "average_cost_for_two": 20,
    "phone": "0415 511 615",
    "address": "Eat Street Markets, Nomadic Location, Hamilton, Brisbane",
    "latitude": "-27.4440752426",
    "longitude": "153.0807672814",
    "base_city": "Brisbane"
  },
  {
    "z_id": "16576165",
    "name": "American Doughnut Kitchen",
    "timings": "7 AM to 2 PM (Tue, Thu), 5 PM to 10 PM (Wed), 7 AM to 4 PM (Fri, Sun), 7 AM to 3 PM (Sat), Mon Closed",
    "price_range": 1,
    "average_cost_for_two": 10,
    "phone": "03 9417 6415",
    "address": "Queen Victoria Market, 531 Elizabeth Street, CBD, Elizabeth Street, CBD",
    "latitude": "-37.8075750438",
    "longitude": "144.9582823366",
    "base_city": "Melbourne"
  },
  {
    "z_id": "16580550",
    "name": "Mr Burger",
    "timings": "",
    "price_range": 2,
    "average_cost_for_two": 40,
    "phone": "03 9329 7304",
    "address": "Nomadic Location",
    "latitude": "-37.8074794174",
    "longitude": "144.9570797011",
    "base_city": "Melbourne"
  },
  {
    "z_id": "16578804",
    "name": "Gumbo Kitchen",
    "timings": "Lunch (Sun), (Mon-Tue),Dinner (Wed-Thu),Lunch, Dinner (Fri-Sat)",
    "price_range": 2,
    "average_cost_for_two": 30,
    "phone": "0411 037 652",
    "address": "Nomadic Location, Northcote, Melbourne",
    "latitude": "-37.7758192109",
    "longitude": "144.9979887530",
    "base_city": "Melbourne"
  },
  {
    "z_id": "16579730",
    "name": "Churros Spanish Donuts",
    "timings": "9:30 AM to 2 PM (Mon-Thu), 9:30 AM to 4 PM (Fri, Sun), 9:30 AM to 3 PM (Sat)",
    "price_range": 1,
    "average_cost_for_two": 10,
    "phone": "0402 001 080",
    "address": "Queen Victoria Market, 513 Elizabeth Street, CBD, Melbourne",
    "latitude": "-37.8067181102",
    "longitude": "144.9556185678",
    "base_city": "Melbourne"
  },
  {
    "z_id": "16580367",
    "name": "White Guy Cooks Thai",
    "timings": "12 Noon to 2 PM, 4 PM to 6:30 PM (Mon-Sun)",
    "price_range": 2,
    "average_cost_for_two": 40,
    "phone": "0423 214 290",
    "address": "Nomadic Location",
    "latitude": "-37.8735542082",
    "longitude": "144.9767640978",
    "base_city": "Melbourne"
  },
  {
    "z_id": "16582835",
    "name": "Sliders on Tyres",
    "timings": "",
    "price_range": 2,
    "average_cost_for_two": 30,
    "phone": "0439 994 608",
    "address": "Nomadic Location",
    "latitude": "-37.8735153038",
    "longitude": "144.9767533690",
    "base_city": "Melbourne"
  },
  {
    "z_id": "16585758",
    "name": "Toasta",
    "timings": "",
    "price_range": 2,
    "average_cost_for_two": 35,
    "phone": "03 9995 0308",
    "address": "Nomadic Location, West Melbourne, Melbourne",
    "latitude": "-37.8735383289",
    "longitude": "144.9767453224",
    "base_city": "Melbourne"
  },
  {
    "z_id": "16582087",
    "name": "Lil Nom Nom's",
    "timings": "",
    "price_range": 2,
    "average_cost_for_two": 35,
    "phone": "0416 047 020",
    "address": "Nomadic Location",
    "latitude": "-37.8735076288",
    "longitude": "144.9767154828",
    "base_city": "Melbourne"
  },
  {
    "z_id": "18393539",
    "name": "Poke Time",
    "timings": "",
    "price_range": 3,
    "average_cost_for_two": 50,
    "phone": "03 0249 6446",
    "address": "Nomadic Location, CBD District, CBD, Melbourne",
    "latitude": "-37.9701541000",
    "longitude": "144.4926816000",
    "base_city": "Melbourne"
  },
  {
    "z_id": "18275831",
    "name": "El Chivi Uruguayan Steak Sandwiches",
    "timings": "11AM to 3PM (Mon-Wed),11AM to 7PM (Thu-Fri),11AM to 5PM (Sat),Closed (Sun)",
    "price_range": 2,
    "average_cost_for_two": 40,
    "phone": "0401 952 655",
    "address": "Nomadic Location",
    "latitude": "-37.8105764847",
    "longitude": "144.9659383670",
    "base_city": "Melbourne"
  },
  {
    "z_id": "16582661",
    "name": "Dandee Donuts",
    "timings": "7 AM to 4 PM (Tue, Sat), 7 AM to 5 PM (Fri), 10 AM to 3 PM (Sun), Mon, Wed & Thu Closed",
    "price_range": 1,
    "average_cost_for_two": 10,
    "phone": "03 9796 5249",
    "address": "Dandenong Market, 16 Cleeland Street, Dandenong, Melbourne",
    "latitude": "-37.9841327763",
    "longitude": "145.2156101167",
    "base_city": "Melbourne"
  },
  {
    "z_id": "16584389",
    "name": "Nuoc Mama's",
    "timings": "Closed (Mon-Tue),5 PM to 9 PM (Wed-Sun)",
    "price_range": 2,
    "average_cost_for_two": 35,
    "phone": "0423 346 205",
    "address": "Nomadic Location",
    "latitude": "-37.8735380642",
    "longitude": "144.9767537043",
    "base_city": "Melbourne"
  },
  {
    "z_id": "16582932",
    "name": "Happy Camper Pizza",
    "timings": "Lunch, Dinner (Sun, Sat), Dinner (Mon-Fri)",
    "price_range": 2,
    "average_cost_for_two": 30,
    "phone": "0420 633 495",
    "address": "Nomadic Location",
    "latitude": "-37.8735232435",
    "longitude": "144.9767292291",
    "base_city": "Melbourne"
  },
  {
    "z_id": "18403868",
    "name": "Nuts About Tella",
    "timings": "6 PM to 10 PM (Wed-Thu), 6 PM to 11 PM (Fri-Sat), 12 Noon to 10 PM (Sun), Mon & Tue Closed",
    "price_range": 2,
    "average_cost_for_two": 30,
    "phone": "Not available for this place",
    "address": "Nomadic Location, CBD District, CBD, Melbourne",
    "latitude": "-37.9712370000",
    "longitude": "144.4926947000",
    "base_city": "Melbourne"
  },
  {
    "z_id": "18554218",
    "name": "Juana Taco",
    "timings": "5:30 PM to 10:30 PM",
    "price_range": 2,
    "average_cost_for_two": 40,
    "phone": "03 9534 4200",
    "address": "21 Carlisle Street, St Kilda, Melbourne, VIC",
    "latitude": "-37.8671971594",
    "longitude": "144.9808065221",
    "base_city": "Melbourne"
  },
  {
    "z_id": "18695466",
    "name": "Gopi Ka Chatka",
    "timings": "6:30 PM to 1 AM",
    "price_range": 2,
    "average_cost_for_two": 30,
    "phone": "0412 658 983",
    "address": "421 Clayton Road, Clayton, Melbourne",
    "latitude": "-37.9290123769",
    "longitude": "145.1187578961",
    "base_city": "Melbourne"
  },
  {
    "z_id": "16585204",
    "name": "La Revolucion",
    "timings": "4 PM to 9 PM",
    "price_range": 2,
    "average_cost_for_two": 35,
    "phone": "0424 641 704",
    "address": "Nomadic Location, Yarraville, Melbourne",
    "latitude": "-37.8206362892",
    "longitude": "144.8936377466",
    "base_city": "Melbourne"
  },
  {
    "z_id": "18463355",
    "name": "Ron's Handburger Food Truck",
    "timings": "Closed (Mon-Tue),5pm â€“ 9pm (Wed-Thu),5pm â€“ 10pm (Fri),12noon â€“ 10pm (Sat),12noon â€“ 8pm (Sun)",
    "price_range": 2,
    "average_cost_for_two": 35,
    "phone": "0452 270 291",
    "address": "98-100 Lygon st, Brunswick East ",
    "latitude": "-37.7754754963",
    "longitude": "144.9711669981",
    "base_city": "Melbourne"
  },
  {
    "z_id": "18745466",
    "name": "Taste of Cyprus",
    "timings": "6 PM to 12 Midnight (Mon-Thu), 5 PM to 12 Midnight (Fri), 12 Noon to 12 Midnight (Sat-Sun)",
    "price_range": 2,
    "average_cost_for_two": 40,
    "phone": "0401 477 477",
    "address": "448 - 462 Mt Alexander road, Ascot Vale, Melbourne",
    "latitude": "-37.7380301877",
    "longitude": "144.9067654833",
    "base_city": "Melbourne"
  },
  {
    "z_id": "16583363",
    "name": "Korean Fried Chicken Truck",
    "timings": "12 Noon to 8 PM (Mon-Sun)",
    "price_range": 2,
    "average_cost_for_two": 35,
    "phone": "0411 110 814",
    "address": "Nomadic Location",
    "latitude": "-37.8663096856",
    "longitude": "144.9756975845",
    "base_city": "Melbourne"
  }
]